,address,price,city,state,zipcode,beds,baths,size,type,lat,lng,geometry,name
0,2226 Pecan Grove Ct,503900, Dallas,TX,75228,3 ,3 ,2434,House,32.811456,-96.703775,POINT (-96.70377499999999 32.811456),East Dallas
21,719 Parkhurst Dr,399000, Dallas,TX,75218,3 ,2 ,1446,House,32.849672999999996,-96.706613,POINT (-96.706613 32.849673),East Dallas
25,11318 Aledo Dr,230000, Dallas,TX,75228,3 ,2 ,1312,House,32.849374,-96.680053,POINT (-96.680053 32.849374),East Dallas
31,2338 Pinebluff Dr,425000, Dallas,TX,75228,3 ,3 ,2138,House,32.806073,-96.706345,POINT (-96.706345 32.806073),East Dallas
74,3322 Crest Ridge Dr,215000, Dallas,TX,75228,3 ,2 ,1269,House,32.828649,-96.65955699999999,POINT (-96.65955699999999 32.828649),East Dallas
88,1819 Oates Dr,390000, Dallas,TX,75228,3 ,2 ,1332,House,32.821782,-96.68340500000001,POINT (-96.68340500000001 32.821782),East Dallas
89,2730 Tisinger Ave,265000, Dallas,TX,75228,3 ,2 ,1437,House,32.849414,-96.66752199999999,POINT (-96.66752199999999 32.849414),East Dallas
100,10714 Cotillion Dr,239500, Dallas,TX,75228,4 ,2 ,1342,House,32.83752,-96.66299000000001,POINT (-96.66299000000001 32.83752),East Dallas
110,11021 Ridgemeadow Dr,509900, Dallas,TX,75218,3 ,2 ,1904,House,32.858484000000004,-96.693726,POINT (-96.693726 32.858484),East Dallas
118,8626 Santa Clara Dr,395000, Dallas,TX,75218,3 ,1 ,1456,House,32.820336,-96.709675,POINT (-96.709675 32.820336),East Dallas
122,1717 Tisinger Ave,340000, Dallas,TX,75228,4 ,3 ,1876,House,32.849719,-96.679133,POINT (-96.67913299999999 32.849719),East Dallas
140,1435 Waterside Dr,750000, Dallas,TX,75218,4 ,4 ,3017,House,32.810561,-96.723837,POINT (-96.723837 32.810561),East Dallas
144,9337 Redondo Dr,939000, Dallas,TX,75218,4 ,4 ,4204,House,32.829492,-96.701296,POINT (-96.701296 32.829492),East Dallas
154,8116 Barbaree Blvd,475000, Dallas,TX,75228,3 ,2 ,1652,House,32.807233000000004,-96.716008,POINT (-96.716008 32.807233),East Dallas
158,10239 Casa View Dr,275000, Dallas,TX,75228,3 ,2 ,1310,House,32.832329,-96.677513,POINT (-96.677513 32.832329),East Dallas
165,2545 Beechmont Dr,360000, Dallas,TX,75228,4 ,3 ,2128,House,32.822153,-96.686176,POINT (-96.686176 32.822153),East Dallas
169,10750 Cotillion Dr,259000, Dallas,TX,75228,3 ,3 ,1739,House,32.838079,-96.661675,POINT (-96.661675 32.838079),East Dallas
178,8921 Vinewood Dr,459900, Dallas,TX,75228,3 ,2 ,1870,House,32.816826,-96.70022900000001,POINT (-96.70022900000001 32.816826),East Dallas
201,9526 Tarleton St,512500, Dallas,TX,75218,3 ,2 ,2005,House,32.845137,-96.710288,POINT (-96.71028800000001 32.845137),East Dallas
211,2624 Lakeland Dr,290000, Dallas,TX,75228,4 ,2 ,1700,House,32.807967,-96.69673900000001,POINT (-96.69673900000001 32.807967),East Dallas
225,1407 Oates Dr,409900, Dallas,TX,75228,3 ,3 ,1693,House,32.82036,-96.691361,POINT (-96.691361 32.82036),East Dallas
238,1807 Wonderlight Ln,335000, Dallas,TX,75228,3 ,3 ,2552,House,32.814102,-96.68415999999999,POINT (-96.68415999999999 32.814102),East Dallas
243,7926 Glade Creek Ct,565000, Dallas,TX,75218,3 ,2 ,2359,House,32.806833000000005,-96.721295,POINT (-96.721295 32.806833),East Dallas
256,8309 Capriola Ln,150000, Dallas,TX,75228,3 ,2 ,1646,House,32.807978999999996,-96.679222,POINT (-96.679222 32.807979),East Dallas
259,2216 Peavy Cir,439900, Dallas,TX,75228,5 ,4 ,2833,House,32.825540000000004,-96.68321800000001,POINT (-96.68321800000001 32.82554),East Dallas
260,11303 Flamingo Ln,399000, Dallas,TX,75218,3 ,2 ,1872,House,32.854073,-96.685703,POINT (-96.685703 32.854073),East Dallas
267,9106 San Fernando Way,387500, Dallas,TX,75218,2 ,1 ,1731,House,32.827146,-96.706528,POINT (-96.70652800000001 32.827146),East Dallas
276,1206 N Selva Dr,295000, Dallas,TX,75218,2 ,2 ,1320,House,32.83767,-96.69680600000001,POINT (-96.69680600000001 32.83767),East Dallas
277,1706 Lakeland Dr,362000, Dallas,TX,75218,2 ,1 ,932,House,32.817997,-96.708469,POINT (-96.70846899999999 32.817997),East Dallas
282,11621 Tuscany Way,365000, Dallas,TX,75218,3 ,2 ,1555,House,32.853426,-96.69107199999999,POINT (-96.69107199999999 32.853426),East Dallas
286,10903 Aledo Dr,200000, Dallas,TX,75228,3 ,1 ,1200,House,32.845166,-96.682956,POINT (-96.682956 32.845166),East Dallas
299,10129 Lingo Ln,314900, Dallas,TX,75228,4 ,2 ,1812,House,32.830599,-96.6781,POINT (-96.6781 32.830599),East Dallas
307,3516 Delford Cir,385000, Dallas,TX,75228,5 ,3 ,2626,House,32.845442999999996,-96.66014,POINT (-96.66014 32.845443),East Dallas
328,8171 San Cristobal Dr,685000, Dallas,TX,75218,4 ,3 ,2518,House,32.808791,-96.715696,POINT (-96.71569599999999 32.808791),East Dallas
351,2644 Lakeland Dr,485000, Dallas,TX,75228,4 ,4 ,2748,House,32.807363,-96.696009,POINT (-96.696009 32.807363),East Dallas
358,1871 Stevens Bluff Ln,699900, Dallas,TX,75208,4 ,3 ,2417,House,32.834184,-96.68765400000001,POINT (-96.68765400000001 32.834184),East Dallas
359,11622 Sasanqua Ln,533000, Dallas,TX,75218,4 ,3 ,2132,House,32.852304,-96.69823000000001,POINT (-96.69823000000001 32.852304),East Dallas
391,3216 San Lucas Ave,220000, Dallas,TX,75228,3 ,2 ,1392,House,32.831299,-96.66154399999999,POINT (-96.66154399999999 32.831299),East Dallas
398,9303 Redondo Dr,549000, Dallas,TX,75218,3 ,2 ,2194,House,32.827999,-96.702903,POINT (-96.70290300000001 32.827999),East Dallas
412,8158 Barbaree Blvd,695000, Dallas,TX,75228,3 ,3 ,2400,House,32.807559000000005,-96.714402,POINT (-96.71440200000001 32.807559),East Dallas
415,2527 Pinebluff Dr,424000, Dallas,TX,75228,4 ,3 ,2954,House,32.80325,-96.702157,POINT (-96.702157 32.80325),East Dallas
416,7735 Claremont Dr,259999, Dallas,TX,75228,3 ,2 ,1384,House,32.795649,-96.71224000000001,POINT (-96.71224000000001 32.795649),East Dallas
430,11619 Lochwood Blvd,459900, Dallas,TX,75218,3 ,2 ,1876,House,32.852746999999994,-96.69195500000001,POINT (-96.69195500000001 32.85274699999999),East Dallas
463,10518 Ferguson Rd,170000, Dallas,TX,75228,3 ,1 ,1125,House,32.83939,-96.668224,POINT (-96.668224 32.83939),East Dallas
507,10815 Joaquin Dr,189900, Dallas,TX,75228,2 ,1 ,1140,House,32.844499,-96.673028,POINT (-96.673028 32.844499),East Dallas
516,3104 San Paula Ave,299000, Dallas,TX,75228,3 ,2 ,1210,House,32.832164,-96.663524,POINT (-96.663524 32.832164),East Dallas
545,2435 Hillsboro Ave,349900, Dallas,TX,75228,3 ,2 ,1687,House,32.816006,-96.673647,POINT (-96.673647 32.816006),East Dallas
559,11916 Loch Ness Dr,549500, Dallas,TX,75218,4 ,3 ,3992,House,32.858876,-96.689327,POINT (-96.68932700000001 32.858876),East Dallas
561,3011 Hillglenn Rd,255000, Dallas,TX,75228,4 ,2 ,1688,House,32.826,-96.663111,POINT (-96.663111 32.826),East Dallas
579,10037 Casa Oaks Dr,254900, Dallas,TX,75228,4 ,2 ,1220,House,32.829582,-96.67231600000001,POINT (-96.67231600000001 32.829582),East Dallas
593,2360 Peavy Pl,389000, Dallas,TX,75228,3 ,3 ,1535,House,32.824031,-96.683741,POINT (-96.683741 32.824031),East Dallas
594,9607 Losa Dr,645000, Dallas,TX,75218,2 ,2 ,2646,House,32.833362,-96.698471,POINT (-96.698471 32.833362),East Dallas
613,10517 Maplegrove Ln,409000, Dallas,TX,75218,3 ,2 ,1368,House,32.848143,-96.69349799999999,POINT (-96.69349799999999 32.848143),East Dallas
648,10226 Pinecrest Dr,249000, Dallas,TX,75228,2 ,1 ,988,House,32.83355,-96.685872,POINT (-96.685872 32.83355),East Dallas
1,9615 Limestone Dr,145000, Dallas,TX,75217,3 ,2 ,1057,House,32.744223999999996,-96.65606600000001,POINT (-96.65606600000001 32.744224),Southeast Dallas
3,351 Crenshaw Dr,199000, Dallas,TX,75217,4 ,2 ,1360,House,32.706745,-96.65570100000001,POINT (-96.65570100000001 32.706745),Southeast Dallas
4,2212 Lowery St,265000, Dallas,TX,75215,3 ,2 ,1366,House,32.743627000000004,-96.757222,POINT (-96.757222 32.743627),Southeast Dallas
17,4451 Cinnabar Dr,334900, Dallas,TX,75227,3 ,3 ,2228,House,32.785948,-96.69636899999999,POINT (-96.69636899999999 32.785948),Southeast Dallas
29,2847 Pleasant Dr,179000, Dallas,TX,75227,3 ,2 ,940,House,32.760811,-96.678136,POINT (-96.67813599999999 32.760811),Southeast Dallas
38,14261 Bridgeview Ln,215000, Dallas,TX,75253,3 ,2 ,1568,House,32.676323,-96.58527099999999,POINT (-96.58527099999999 32.676323),Southeast Dallas
39,8102 Suetelle Dr,200000, Dallas,TX,75217,3 ,2 ,1400,House,32.693929,-96.682705,POINT (-96.682705 32.693929),Southeast Dallas
46,2016 Shortal St,175000, Dallas,TX,75217,3 ,1 ,1153,House,32.746988,-96.68451,POINT (-96.68451 32.746988),Southeast Dallas
54,14157 Greenhaw Ln,249900, Dallas,TX,75253,3 ,3 ,1946,House,32.676935,-96.58750500000001,POINT (-96.58750500000001 32.676935),Southeast Dallas
57,429 Bissonet Ave,195000, Dallas,TX,75217,3 ,2 ,1180,House,32.718579999999996,-96.701709,POINT (-96.70170899999999 32.71858),Southeast Dallas
60,9420 Kerrville St,149000, Dallas,TX,75227,2 ,2 ,1054,House,32.764488,-96.659899,POINT (-96.659899 32.764488),Southeast Dallas
61,8003 Rothington Rd APT 41-47,485000, Dallas,TX,75227,8 ,12 ,4960,Multi-family,32.783101,-96.68604300000001,POINT (-96.68604300000001 32.783101),Southeast Dallas
99,5812 Wofford Ave,185000, Dallas,TX,75227,3 ,2 ,1458,House,32.770891,-96.722048,POINT (-96.722048 32.770891),Southeast Dallas
123,834 Oslo Ln,220000, Dallas,TX,75217,3 ,2 ,1380,House,32.698504,-96.66350600000001,POINT (-96.66350600000001 32.698504),Southeast Dallas
149,7210 Hunnicut Rd,349900, Dallas,TX,75227,3 ,3 ,2143,House,32.786988,-96.71243,POINT (-96.71243 32.786988),Southeast Dallas
204,3622 Middlefield Rd,139000, Dallas,TX,75253,3 ,2 ,1450,House,32.655864,-96.657264,POINT (-96.657264 32.655864),Southeast Dallas
209,5611 Meadowick Ln,289000, Dallas,TX,75227,2 ,2 ,1400,House,32.789664,-96.704526,POINT (-96.704526 32.789664),Southeast Dallas
220,8918 Slay St,187500, Dallas,TX,75217,3 ,2 ,1584,House,32.730164,-96.665941,POINT (-96.665941 32.730164),Southeast Dallas
266,317 Campus Dr,229000, Dallas,TX,75217,3 ,1 ,975,House,32.708092,-96.65446899999999,POINT (-96.65446899999999 32.708092),Southeast Dallas
281,1717 Greendale Dr,200000, Dallas,TX,75217,3 ,2 ,1713,House,32.741972,-96.66879499999999,POINT (-96.66879499999999 32.741972),Southeast Dallas
312,9924 Crystal Valley Way,240000, Dallas,TX,75227,4 ,3 ,1728,House,32.765448,-96.65071999999999,POINT (-96.65071999999999 32.765448),Southeast Dallas
378,8203 Stonehurst St,127000, Dallas,TX,75217,2 ,1 ,732,House,32.741440000000004,-96.680729,POINT (-96.680729 32.74144),Southeast Dallas
402,2226 Dyson St,265999, Dallas,TX,75215,3 ,3 ,1898,House,32.742484000000005,-96.756404,POINT (-96.756404 32.742484),Southeast Dallas
453,9516 Macomba Ct,229950, Dallas,TX,75217,4 ,3 ,1920,House,32.732634999999995,-96.657593,POINT (-96.65759300000001 32.73263499999999),Southeast Dallas
481,551 Neomi Ave,239900, Dallas,TX,75217,4 ,2 ,1599,House,32.721722,-96.716599,POINT (-96.716599 32.721722),Southeast Dallas
526,508 Youngstown St #25,165000, Dallas,TX,75253,3 ,2 ,1500,House,32.688038,-96.574341,POINT (-96.574341 32.688038),Southeast Dallas
533,2243 Major Dr,155000, Dallas,TX,75227,3 ,2 ,1457,House,32.752196000000005,-96.687587,POINT (-96.68758699999999 32.752196),Southeast Dallas
537,1561 Cosette Dr,549900, Dallas,TX,75215,2 ,3 ,2083,House,32.746069,-96.653791,POINT (-96.653791 32.746069),Southeast Dallas
543,4910 Urban Ave,289000, Dallas,TX,75227,4 ,3 ,1841,House,32.781602,-96.695177,POINT (-96.695177 32.781602),Southeast Dallas
558,7531 Olusta Dr #2,299900, Dallas,TX,75217,2 ,2 ,2089,Multi-family,32.711402,-96.691564,POINT (-96.691564 32.711402),Southeast Dallas
575,3433 Detonte St,109000, Dallas,TX,75223,2 ,2 ,868,Multi-family,32.781889,-96.73605699999999,POINT (-96.73605699999999 32.781889),Southeast Dallas
584,2183 Jordan Valley Rd,124900, Dallas,TX,75253,2 ,1 ,896,House,32.679471,-96.618003,POINT (-96.618003 32.679471),Southeast Dallas
588,5747 Russcrest Dr,249900, Dallas,TX,75227,2 ,2 ,1463,House,32.78208,-96.70329,POINT (-96.70329 32.78208),Southeast Dallas
603,2222 Dyson St,265999, Dallas,TX,75215,3 ,3 ,1898,House,32.742019,-96.756956,POINT (-96.756956 32.742019),Southeast Dallas
640,7224 Piedmont Dr,279000, Dallas,TX,75227,3 ,2 ,1548,House,32.759792,-96.698008,POINT (-96.698008 32.759792),Southeast Dallas
641,6419 Lovett Ave,165000, Dallas,TX,75227,3 ,2 ,1360,House,32.777033,-96.706523,POINT (-96.706523 32.777033),Southeast Dallas
2,2714 Burger Ave,155000, Dallas,TX,75215,3 ,2 ,912,House,32.764402000000004,-96.763974,POINT (-96.763974 32.764402),Fair Park
48,2839 Southland St,173900, Dallas,TX,75215,3 ,2 ,1398,House,32.757605,-96.75239499999999,POINT (-96.75239499999999 32.757605),Fair Park
78,3112 Latimer St,497600, Dallas,TX,75215,4 ,4 ,2592,House,32.76484,-96.770409,POINT (-96.770409 32.76484),Fair Park
152,4102 Carpenter Ave,145000, Dallas,TX,75210,4 ,1 ,1314,House,32.768619,-96.744116,POINT (-96.74411600000001 32.768619),Fair Park
166,2910 Gay St,262000, Dallas,TX,75210,4 ,4 ,2121,House,32.772154,-96.74363000000001,POINT (-96.74363000000001 32.772154),Fair Park
195,4228 Copeland St,94000, Dallas,TX,75210,2 ,2 ,936,Multi-family,32.771161,-96.743883,POINT (-96.743883 32.771161),Fair Park
219,2606 Marburg St,150000, Dallas,TX,75215,5 ,2 ,1794,Multi-family,32.75501,-96.75739499999999,POINT (-96.75739499999999 32.75501),Fair Park
237,4307 Frank St,149000, Dallas,TX,75210,4 ,2 ,1380,Multi-family,32.774335,-96.746705,POINT (-96.74670500000001 32.774335),Fair Park
327,4523 Colonial Ave,260000, Dallas,TX,75215,3 ,3 ,2079,House,32.749522999999996,-96.76325200000001,POINT (-96.76325200000001 32.749523),Fair Park
336,2918 Reed Ln,118000, Dallas,TX,75215,3 ,2 ,996,House,32.760498999999996,-96.754806,POINT (-96.754806 32.760499),Fair Park
496,2607 Peabody Ave,170000, Dallas,TX,75215,3 ,2 ,1358,House,32.766463,-96.76959000000001,POINT (-96.76959000000001 32.766463),Fair Park
551,1607 Marburg St,150000, Dallas,TX,75215,5 ,2 ,2106,Multi-family,32.74897,-96.765313,POINT (-96.76531300000001 32.74897),Fair Park
5,5116 Jade Dr,160000, Dallas,TX,75232,3 ,2 ,1742,House,32.682663,-96.84067900000001,POINT (-96.84067900000001 32.682663),South Oak Cliff
6,2723 Alaska Ave,220000, Dallas,TX,75216,3 ,2 ,1444,House,32.71418,-96.815823,POINT (-96.81582299999999 32.71418),South Oak Cliff
26,2845 Gospel Dr,215000, Dallas,TX,75237,4 ,2 ,1897,House,32.654181,-96.866506,POINT (-96.866506 32.654181),South Oak Cliff
52,3427 Old Colony Rd,274900, Dallas,TX,75233,3 ,2 ,1542,House,32.695432000000004,-96.877143,POINT (-96.877143 32.695432),South Oak Cliff
64,3215 Kiesthill Dr,395000, Dallas,TX,75233,5 ,3 ,3312,House,32.705025,-96.88078900000001,POINT (-96.88078900000001 32.705025),South Oak Cliff
77,3912 Wanklyn Ct,165000, Dallas,TX,75237,2 ,2 ,1153,House,32.669768,-96.882276,POINT (-96.882276 32.669768),South Oak Cliff
80,2366 Southwood Dr,295000, Dallas,TX,75224,3 ,2 ,1746,House,32.69999,-96.856501,POINT (-96.85650099999999 32.69999),South Oak Cliff
95,3905 Morning Dew Trl,239500, Dallas,TX,75224,3 ,2 ,1402,House,32.696039,-96.83417299999999,POINT (-96.83417299999999 32.696039),South Oak Cliff
101,2556 Matland Dr,239000, Dallas,TX,75237,3 ,2 ,1774,House,32.667228,-96.863155,POINT (-96.86315500000001 32.667228),South Oak Cliff
161,4024 Oak Arbor Dr,269900, Dallas,TX,75233,3 ,2 ,1649,House,32.693914,-96.885926,POINT (-96.885926 32.693914),South Oak Cliff
179,319 Fordham Rd,259900, Dallas,TX,75216,4 ,2 ,1686,House,32.696236999999996,-96.819452,POINT (-96.819452 32.696237),South Oak Cliff
193,3115 Arizona Ave,169000, Dallas,TX,75216,3 ,2 ,916,House,32.706972,-96.81824,POINT (-96.81824 32.706972),South Oak Cliff
241,5640 Trailwood Dr,198000, Dallas,TX,75241,3 ,2 ,2021,House,32.678552,-96.818143,POINT (-96.81814300000001 32.678552),South Oak Cliff
271,2526 Jim Loftin Rd,300000, Dallas,TX,75224,4 ,3 ,1496,House,32.720215,-96.84074,POINT (-96.84074 32.720215),South Oak Cliff
288,1347 Acapulco Dr,525000, Dallas,TX,75232,4 ,4 ,3470,House,32.670829,-96.842481,POINT (-96.84248100000001 32.670829),South Oak Cliff
295,928 Stillmeadow Rd,390000, Dallas,TX,75232,4 ,4 ,2448,House,32.675303,-96.838476,POINT (-96.838476 32.675303),South Oak Cliff
313,735 Oak Park Dr,249000, Dallas,TX,75232,3 ,2 ,1410,House,32.68815,-96.834731,POINT (-96.834731 32.68815),South Oak Cliff
334,742 Ivywood Dr,224879, Dallas,TX,75232,3 ,2 ,1391,House,32.655559000000004,-96.83348199999999,POINT (-96.83348199999999 32.655559),South Oak Cliff
347,7707 Woodshire Dr,170000, Dallas,TX,75232,3 ,1 ,1281,House,32.654655,-96.839366,POINT (-96.839366 32.654655),South Oak Cliff
379,5528 Oak Trl,299990, Dallas,TX,75232,4 ,3 ,2551,House,32.678125,-96.835578,POINT (-96.835578 32.678125),South Oak Cliff
401,749 Deerwood Dr,185000, Dallas,TX,75232,3 ,1 ,882,House,32.659915000000005,-96.833961,POINT (-96.833961 32.65991500000001),South Oak Cliff
406,6846 Talbot Pkwy,375000, Dallas,TX,75232,4 ,3 ,3552,House,32.664603,-96.85533199999999,POINT (-96.85533199999999 32.664603),South Oak Cliff
427,3654 S Marsalis Ave,205000, Dallas,TX,75216,3 ,2 ,1500,House,32.698737,-96.814588,POINT (-96.814588 32.698737),South Oak Cliff
486,202 W Elmore Ave,200000, Dallas,TX,75224,3 ,2 ,1003,House,32.716763,-96.82486800000001,POINT (-96.82486800000001 32.716763),South Oak Cliff
555,904 Green Hill Rd,360000, Dallas,TX,75232,3 ,2 ,2158,House,32.681143,-96.837935,POINT (-96.837935 32.681143),South Oak Cliff
610,4910 Haywood Pkwy,177777, Dallas,TX,75232,2 ,2 ,1516,House,32.685389,-96.831713,POINT (-96.83171299999999 32.685389),South Oak Cliff
7,18711 Platte River Way,339750, Dallas,TX,75287,4 ,2 ,2307,House,33.007546000000005,-96.86510200000001,POINT (-96.86510200000001 33.007546),Far North Dallas
9,6816 Flanary Ln,450000, Dallas,TX,75252,4 ,3 ,2795,House,33.004721,-96.784663,POINT (-96.78466299999999 33.004721),Far North Dallas
11,18619 Crownover Ct,375000, Dallas,TX,75252,3 ,3 ,2079,House,33.004545,-96.794917,POINT (-96.794917 33.004545),Far North Dallas
30,6006 Gentle Knoll Ln,429000, Dallas,TX,75248,4 ,3 ,1969,House,32.980858000000005,-96.803028,POINT (-96.803028 32.980858),Far North Dallas
33,4116 Timberglen Rd,400000, Dallas,TX,75287,3 ,2 ,2009,House,33.003913,-96.84057800000001,POINT (-96.84057800000001 33.003913),Far North Dallas
42,5801 Preston Valley Dr,349000, Dallas,TX,75240,2 ,2 ,1374,House,32.938168,-96.806923,POINT (-96.806923 32.938168),Far North Dallas
45,7935 La Cosa Dr,450000, Dallas,TX,75248,5 ,4 ,2345,House,32.959546,-96.770099,POINT (-96.770099 32.959546),Far North Dallas
50,17317 Stedman Cir,598000, Dallas,TX,75252,3 ,3 ,3379,House,32.987994,-96.795542,POINT (-96.795542 32.987994),Far North Dallas
55,4131 Briarbend Rd,485000, Dallas,TX,75287,4 ,3 ,3177,House,33.006009999999996,-96.839589,POINT (-96.839589 33.00601),Far North Dallas
69,6210 Meadowcreek Dr,1249000, Dallas,TX,75254,5 ,5 ,4764,House,32.949261,-96.79247099999999,POINT (-96.79247099999999 32.949261),Far North Dallas
71,7239 Hillwood Ln,725000, Dallas,TX,75248,4 ,3 ,3015,House,32.957899,-96.783152,POINT (-96.783152 32.957899),Far North Dallas
81,6209 La Cosa Dr,485000, Dallas,TX,75248,4 ,3 ,2587,House,32.959625,-96.799371,POINT (-96.79937099999999 32.959625),Far North Dallas
82,7646 La Bolsa Dr,479900, Dallas,TX,75248,4 ,3 ,2000,House,32.964379,-96.776578,POINT (-96.776578 32.964379),Far North Dallas
92,5325 Bent Tree Forest Dr APT 2224,180000, Dallas,TX,75248,2 ,3 ,1389,Condo,32.965082,-96.818188,POINT (-96.81818800000001 32.965082),Far North Dallas
102,7916 Habersham Ln,400000, Dallas,TX,75248,5 ,4 ,2745,Multi-family,32.953996999999994,-96.770507,POINT (-96.77050699999999 32.95399699999999),Far North Dallas
116,5103 Lincolnshire Ct,999900, Dallas,TX,75287,5 ,5 ,5007,House,33.002247,-96.821926,POINT (-96.821926 33.002247),Far North Dallas
119,7812 Roundrock Rd,690000, Dallas,TX,75248,5 ,4 ,3221,House,32.9559,-96.773342,POINT (-96.773342 32.9559),Far North Dallas
121,6209 Sandydale Dr,850000, Dallas,TX,75248,5 ,4 ,3464,House,32.962697999999996,-96.79934399999999,POINT (-96.79934399999999 32.962698),Far North Dallas
136,14007 Highmark Sq,589000, Dallas,TX,75254,3 ,3 ,2759,House,32.939640000000004,-96.802666,POINT (-96.802666 32.93964),Far North Dallas
137,7724 Lone Moor Cir,530000, Dallas,TX,75248,4 ,4 ,2832,House,32.983961,-96.773398,POINT (-96.773398 32.983961),Far North Dallas
141,5520 Bent Trl,950000, Dallas,TX,75248,5 ,6 ,4672,House,32.976337,-96.817154,POINT (-96.817154 32.976337),Far North Dallas
173,6019 Ainsdale Ct,315000, Dallas,TX,75252,2 ,2 ,1632,House,32.998761,-96.800772,POINT (-96.80077199999999 32.998761),Far North Dallas
176,6500 Villa Rd,599900, Dallas,TX,75252,4 ,4 ,3376,House,33.006764000000004,-96.788309,POINT (-96.788309 33.006764),Far North Dallas
196,5007 Briar Tree Dr,569000, Dallas,TX,75248,4 ,4 ,3439,House,32.979539,-96.82459200000001,POINT (-96.82459200000001 32.979539),Far North Dallas
221,6406 Norbury Dr,600000, Dallas,TX,75248,4 ,3 ,2865,House,32.98485,-96.790711,POINT (-96.790711 32.98485),Far North Dallas
226,6304 Misty Trl,860000, Dallas,TX,75248,4 ,5 ,3523,House,32.963347999999996,-96.79754100000001,POINT (-96.79754100000001 32.963348),Far North Dallas
231,7018 Spruce Creek Ln,526900, Dallas,TX,75252,3 ,2 ,2449,House,32.999083,-96.782103,POINT (-96.78210300000001 32.999083),Far North Dallas
233,14318 Haymeadow Cir,250000, Dallas,TX,75254,3 ,3 ,1607,Townhouse,32.943678000000006,-96.77104200000001,POINT (-96.77104200000001 32.94367800000001),Far North Dallas
246,4728 Stonehearth Pl,1599000, Dallas,TX,75287,6 ,8 ,6540,House,32.994316999999995,-96.817689,POINT (-96.817689 32.994317),Far North Dallas
247,15930 Coolwood Dr,255000, Dallas,TX,75248,3 ,3 ,2195,Condo,32.964932,-96.805941,POINT (-96.805941 32.964932),Far North Dallas
248,6507 Clearhaven Cir,529900, Dallas,TX,75248,4 ,3 ,2590,House,32.966328999999995,-96.791919,POINT (-96.79191899999999 32.96632899999999),Far North Dallas
249,5806 Bent Creek Trl,750000, Dallas,TX,75252,4 ,4 ,4018,House,33.00877,-96.808525,POINT (-96.808525 33.00877),Far North Dallas
251,18701 Stoneridge Dr,725000, Dallas,TX,75252,4 ,5 ,4014,House,33.002132,-96.80631899999999,POINT (-96.80631899999999 33.002132),Far North Dallas
255,5925 Copperwood Ln APT 2006,187000, Dallas,TX,75248,3 ,2 ,1768,Condo,32.965786,-96.807573,POINT (-96.807573 32.965786),Far North Dallas
261,14112 Regency Pl,495000, Dallas,TX,75254,3 ,2 ,2205,House,32.940290999999995,-96.801921,POINT (-96.80192099999999 32.94029099999999),Far North Dallas
270,13442 Flagstone Ln,284999, Dallas,TX,75240,4 ,2 ,2017,House,32.931159,-96.77166700000001,POINT (-96.77166700000001 32.931159),Far North Dallas
274,39 Braewood Pl,3795000, Dallas,TX,75248,5 ,7 ,10072,House,32.972882,-96.811759,POINT (-96.811759 32.972882),Far North Dallas
293,7326 La Cosa Dr,579000, Dallas,TX,75248,3 ,3 ,2609,House,32.959561,-96.78136500000001,POINT (-96.78136500000001 32.959561),Far North Dallas
301,6003 Ainsdale Ct,435000, Dallas,TX,75252,3 ,3 ,2643,House,32.998765,-96.80126700000001,POINT (-96.80126700000001 32.998765),Far North Dallas
303,4403 Landlewood Ct,625000, Dallas,TX,75287,5 ,4 ,3844,House,33.002373999999996,-96.8328,POINT (-96.83280000000001 33.002374),Far North Dallas
306,5901 Deseret Trl,600000, Dallas,TX,75252,4 ,3 ,2840,House,33.005177,-96.807523,POINT (-96.807523 33.005177),Far North Dallas
316,6016 Barrington Ct,310000, Dallas,TX,75252,2 ,3 ,1538,House,33.007474,-96.80054399999999,POINT (-96.80054399999999 33.007474),Far North Dallas
329,3904 Stockton Ln,338900, Dallas,TX,75287,3 ,2 ,1648,House,32.999446999999996,-96.846816,POINT (-96.846816 32.999447),Far North Dallas
349,5514 Harbor Town Dr,1699999, Dallas,TX,75287,5 ,8 ,7614,House,32.98831,-96.81935899999999,POINT (-96.81935899999999 32.98831),Far North Dallas
374,6732 Hillbriar Dr,478500, Dallas,TX,75248,4 ,3 ,2517,House,32.953359000000006,-96.793386,POINT (-96.793386 32.95335900000001),Far North Dallas
404,5200 Keller Springs Rd APT 235,345750, Dallas,TX,75248,2 ,2 ,1685,Condo,32.968494,-96.818703,POINT (-96.818703 32.968494),Far North Dallas
411,7140 Gracefield Ln,850000, Dallas,TX,75248,5 ,5 ,4122,House,32.977717999999996,-96.78404300000001,POINT (-96.78404300000001 32.977718),Far North Dallas
417,3617 Granbury Dr,348000, Dallas,TX,75287,3 ,2 ,1609,House,33.001505,-96.85108100000001,POINT (-96.85108100000001 33.001505),Far North Dallas
435,14333 Preston Rd APT 2603,200000, Dallas,TX,75254,2 ,3 ,1384,Condo,32.943655,-96.803618,POINT (-96.803618 32.943655),Far North Dallas
444,6910 Midcrest Dr,915000, Dallas,TX,75254,4 ,5 ,3563,House,32.946782,-96.785375,POINT (-96.785375 32.946782),Far North Dallas
485,7636 La Risa Dr,409990, Dallas,TX,75248,3 ,2 ,2104,House,32.962584,-96.77596,POINT (-96.77596 32.962584),Far North Dallas
492,3908 Belton Dr,460000, Dallas,TX,75287,4 ,3 ,3132,House,33.001853999999994,-96.846117,POINT (-96.84611700000001 33.00185399999999),Far North Dallas
517,6523 Redpine Rd,534900, Dallas,TX,75248,4 ,3 ,2842,House,32.974005,-96.792568,POINT (-96.792568 32.974005),Far North Dallas
520,23 Ashbluff Ln,7500000, Dallas,TX,75248,7 ,9 ,18589,House,32.975161,-96.81318900000001,POINT (-96.81318900000001 32.975161),Far North Dallas
527,14757 Celestial Pl,869000, Dallas,TX,75254,3 ,3 ,3185,House,32.947127,-96.814319,POINT (-96.814319 32.947127),Far North Dallas
528,6439 Brook Lake Dr,895000, Dallas,TX,75248,4 ,4 ,5321,House,32.967728,-96.796221,POINT (-96.796221 32.967728),Far North Dallas
530,6134 Stapleford Cir,549900, Dallas,TX,75252,3 ,2 ,1771,House,33.001708,-96.79962900000001,POINT (-96.79962900000001 33.001708),Far North Dallas
542,5623 Covehaven Dr,1099000, Dallas,TX,75252,5 ,4 ,4578,House,32.997344,-96.808175,POINT (-96.80817500000001 32.997344),Far North Dallas
590,14277 Preston Rd APT 821,199900, Dallas,TX,75254,2 ,2 ,1299,Condo,32.943505,-96.803619,POINT (-96.803619 32.943505),Far North Dallas
602,5052 Westgrove Dr,399900, Dallas,TX,75248,2 ,3 ,2128,Townhouse,32.976509,-96.82206500000001,POINT (-96.82206500000001 32.976509),Far North Dallas
624,6004 Spring Flower Trl,450000, Dallas,TX,75248,4 ,2 ,2047,House,32.978584999999995,-96.803291,POINT (-96.803291 32.978585),Far North Dallas
626,6816 Anglebluff Cir,314900, Dallas,TX,75248,2 ,2 ,1678,Townhouse,32.966327,-96.79037199999999,POINT (-96.79037199999999 32.966327),Far North Dallas
628,7712 Turnberry Ln,649999, Dallas,TX,75248,4 ,4 ,3756,House,32.981343,-96.772477,POINT (-96.77247699999999 32.981343),Far North Dallas
8,413 S Brighton Ave,289990, Dallas,TX,75208,2 ,2 ,1625,House,32.741765,-96.850317,POINT (-96.850317 32.741765),North Oak Cliff
12,1051 N Winnetka Ave,995000, Dallas,TX,75208,3 ,3 ,3360,House,32.757154,-96.840253,POINT (-96.840253 32.757154),North Oak Cliff
27,1723 N Edgefield Ave,629000, Dallas,TX,75208,4 ,3 ,2600,House,32.768119,-96.841893,POINT (-96.841893 32.768119),North Oak Cliff
40,323 Lillian St,287500, Dallas,TX,75211,2 ,2 ,938,House,32.747771,-96.87548699999999,POINT (-96.87548699999999 32.747771),North Oak Cliff
41,806 Hollywood Ave,439900, Dallas,TX,75208,3 ,2 ,1655,House,32.738044,-96.855419,POINT (-96.855419 32.738044),North Oak Cliff
56,2707 W 12th St,350000, Dallas,TX,75211,2 ,2 ,1344,House,32.741217999999996,-96.863844,POINT (-96.863844 32.741218),North Oak Cliff
62,2330 Barberry Dr,550000, Dallas,TX,75211,3 ,3 ,2114,House,32.762974,-96.861951,POINT (-96.861951 32.762974),North Oak Cliff
84,614 N Rosemont Ave,585000, Dallas,TX,75208,3 ,2 ,1998,House,32.750076,-96.847613,POINT (-96.847613 32.750076),North Oak Cliff
93,1116 W Canty St,315000, Dallas,TX,75208,2 ,2 ,1476,House,32.752399,-96.841024,POINT (-96.841024 32.752399),North Oak Cliff
96,715 Kessler Woods Trl,1390000, Dallas,TX,75208,3 ,4 ,2776,House,32.752376,-96.851796,POINT (-96.85179599999999 32.752376),North Oak Cliff
98,307 N Edgefield Ave,457000, Dallas,TX,75208,2 ,1 ,1695,House,32.74757,-96.84407,POINT (-96.84407 32.74757),North Oak Cliff
103,2519 Sunset Ave,399990, Dallas,TX,75211,2 ,2 ,1460,House,32.744126,-96.85955200000001,POINT (-96.85955200000001 32.744126),North Oak Cliff
124,701 S Clinton Ave,630000, Dallas,TX,75208,4 ,3 ,2960,House,32.73918,-96.84298100000001,POINT (-96.84298100000001 32.73918),North Oak Cliff
146,210 Stellariga Pl,275000, Dallas,TX,75203,2 ,3 ,1342,Townhouse,32.749099,-96.81785500000001,POINT (-96.81785500000001 32.749099),North Oak Cliff
148,3843 Mount Everest St,195000, Dallas,TX,75211,2 ,1 ,809,House,32.746308,-96.88243100000001,POINT (-96.88243100000001 32.746308),North Oak Cliff
163,729 W 9th St,540000, Dallas,TX,75208,3 ,3 ,2095,Multi-family,32.746394,-96.834461,POINT (-96.834461 32.746394),North Oak Cliff
180,534 Monssen Dr,499900, Dallas,TX,75224,3 ,2 ,1800,House,32.731642,-96.832652,POINT (-96.832652 32.731642),North Oak Cliff
181,1434 S Oak Cliff Blvd,250000, Dallas,TX,75208,2 ,1 ,1006,House,32.729246999999994,-96.85303499999999,POINT (-96.85303499999999 32.72924699999999),North Oak Cliff
212,2746 Kingston St,350000, Dallas,TX,75211,5 ,4 ,2620,House,32.733839,-96.865655,POINT (-96.865655 32.733839),North Oak Cliff
235,2862 Duval Dr,461000, Dallas,TX,75211,3 ,1 ,1719,House,32.744496999999996,-96.86759599999999,POINT (-96.86759599999999 32.744497),North Oak Cliff
239,1012 Cliffdale Ave,249000, Dallas,TX,75211,3 ,1 ,1348,House,32.753754,-96.866336,POINT (-96.866336 32.753754),North Oak Cliff
245,408 S Montclair Ave,439900, Dallas,TX,75208,2 ,2 ,1728,Multi-family,32.741285,-96.846654,POINT (-96.846654 32.741285),North Oak Cliff
264,1614 Wilbur St,249900, Dallas,TX,75224,2 ,2 ,1040,House,32.7223,-96.846923,POINT (-96.846923 32.7223),North Oak Cliff
269,730 N Windomere Ave,550000, Dallas,TX,75208,3 ,3 ,2744,Multi-family,32.752001,-96.84526899999999,POINT (-96.84526899999999 32.752001),North Oak Cliff
275,417 N Lancaster Ave,199000, Dallas,TX,75203,3 ,3 ,1493,House,32.753510999999996,-96.81415,POINT (-96.81415 32.753511),North Oak Cliff
287,2439 W Brooklyn Ave,378000, Dallas,TX,75211,2 ,2 ,1862,Multi-family,32.739196,-96.858465,POINT (-96.858465 32.739196),North Oak Cliff
314,1120 Woodlawn Ave,600000, Dallas,TX,75208,4 ,5 ,2735,House,32.756935999999996,-96.830046,POINT (-96.830046 32.756936),North Oak Cliff
320,3615 Glenhaven Blvd,265000, Dallas,TX,75211,4 ,2 ,1417,House,32.729240999999995,-96.87996700000001,POINT (-96.87996700000001 32.72924099999999),North Oak Cliff
335,1046 N Windomere Ave,737000, Dallas,TX,75208,4 ,3 ,2896,House,32.757020000000004,-96.843947,POINT (-96.843947 32.75702),North Oak Cliff
354,3314 Burlingdell Ave,349000, Dallas,TX,75211,3 ,2 ,2069,House,32.736815,-96.87471500000001,POINT (-96.87471500000001 32.736815),North Oak Cliff
369,3423 Falls Dr,265000, Dallas,TX,75211,3 ,2 ,1318,House,32.726380999999996,-96.877843,POINT (-96.877843 32.726381),North Oak Cliff
372,1322 Kessler Pkwy,2000000, Dallas,TX,75208,3 ,3 ,3043,House,32.76648,-96.833345,POINT (-96.83334499999999 32.76648),North Oak Cliff
376,1214 Newport Ave,250000, Dallas,TX,75224,4 ,4 ,1228,House,32.725208,-96.84263100000001,POINT (-96.84263100000001 32.725208),North Oak Cliff
382,202 S Edgefield Ave,514900, Dallas,TX,75208,4 ,3 ,2384,House,32.744009999999996,-96.844138,POINT (-96.844138 32.74401),North Oak Cliff
423,4110 June Dr,210000, Dallas,TX,75211,3 ,2 ,1282,House,32.722328999999995,-96.88715,POINT (-96.88715000000001 32.72232899999999),North Oak Cliff
432,2518 W Jefferson Blvd,399000, Dallas,TX,75211,3 ,2 ,1271,House,32.747858,-96.859549,POINT (-96.859549 32.747858),North Oak Cliff
455,1010 Elsbeth St,619000, Dallas,TX,75208,4 ,4 ,3098,House,32.755093,-96.825339,POINT (-96.825339 32.755093),North Oak Cliff
490,2523 S Vernon Ave,195000, Dallas,TX,75224,4 ,2 ,1980,House,32.720821,-96.836831,POINT (-96.836831 32.720821),North Oak Cliff
494,2018 Atlantic St,549900, Dallas,TX,75208,4 ,3 ,2345,House,32.762202,-96.854826,POINT (-96.854826 32.762202),North Oak Cliff
512,1606 Melbourne Ave,279000, Dallas,TX,75224,3 ,2 ,1306,House,32.723264,-96.846577,POINT (-96.846577 32.723264),North Oak Cliff
521,418 S Willomet Ave,475000, Dallas,TX,75208,3 ,2 ,1552,House,32.741768,-96.840456,POINT (-96.840456 32.741768),North Oak Cliff
523,430 E 8th St,300000, Dallas,TX,75203,2 ,2 ,1922,House,32.75054,-96.817911,POINT (-96.817911 32.75054),North Oak Cliff
550,418 Lansing St,329000, Dallas,TX,75203,3 ,2 ,1131,House,32.752632,-96.816661,POINT (-96.816661 32.752632),North Oak Cliff
577,1645 Nob Hill Rd,775000, Dallas,TX,75208,2 ,3 ,2996,House,32.765122,-96.838091,POINT (-96.83809100000001 32.765122),North Oak Cliff
580,2903 W Clarendon Dr,185000, Dallas,TX,75211,3 ,1 ,800,House,32.734343,-96.869004,POINT (-96.869004 32.734343),North Oak Cliff
587,2638 Alco Ave,375000, Dallas,TX,75211,3 ,2 ,1647,House,32.746787,-96.862003,POINT (-96.862003 32.746787),North Oak Cliff
597,508 S Brighton Ave,276000, Dallas,TX,75208,4 ,4 ,2192,House,32.740891999999995,-96.85033100000001,POINT (-96.85033100000001 32.740892),North Oak Cliff
600,773 Evergreen Hills Rd,2200000, Dallas,TX,75208,6 ,7 ,5891,House,32.764023,-96.83559699999999,POINT (-96.83559699999999 32.764023),North Oak Cliff
601,828 Evergreen Hills Rd,667000, Dallas,TX,75208,2 ,3 ,2261,House,32.763839000000004,-96.836973,POINT (-96.836973 32.763839),North Oak Cliff
638,1430 Nolte Dr,341500, Dallas,TX,75208,3 ,2 ,1375,House,32.733752,-96.84558,POINT (-96.84558 32.733752),North Oak Cliff
10,3121 Park Ln APT 1153,114000, Dallas,TX,75220,2 ,2 ,970,Condo,32.875809000000004,-96.873582,POINT (-96.873582 32.875809),Northwest Dallas
14,3220 Dothan Ln,355000, Dallas,TX,75229,3 ,3 ,1873,House,32.897881,-96.869703,POINT (-96.869703 32.897881),Northwest Dallas
34,3456 Salisbury Dr,490000, Dallas,TX,75229,4 ,3 ,2507,House,32.881356,-96.863755,POINT (-96.863755 32.881356),Northwest Dallas
58,3821 Goodfellow Dr,515000, Dallas,TX,75229,3 ,2 ,2122,House,32.908949,-96.850636,POINT (-96.85063599999999 32.908949),Northwest Dallas
67,4811 W University Blvd,1100000, Dallas,TX,75209,4 ,4 ,3416,House,32.844914,-96.828254,POINT (-96.828254 32.844914),Northwest Dallas
76,6707 Prosper St,549900, Dallas,TX,75209,4 ,3 ,2955,House,32.839884000000005,-96.82851600000001,POINT (-96.82851600000001 32.839884),Northwest Dallas
79,9910 Lakemont Dr,624900, Dallas,TX,75220,3 ,2 ,1627,House,32.878371,-96.842682,POINT (-96.842682 32.878371),Northwest Dallas
86,6519 Oriole Dr,749000, Dallas,TX,75209,3 ,3 ,2521,House,32.837454,-96.82438499999999,POINT (-96.82438499999999 32.837454),Northwest Dallas
104,3812 Shady Hill Dr,799000, Dallas,TX,75229,4 ,3 ,2995,House,32.906102000000004,-96.850688,POINT (-96.85068800000001 32.906102),Northwest Dallas
108,2407 Stutz Dr #B2,325000, Dallas,TX,75235,2 ,3 ,1218,Condo,32.822195,-96.8392,POINT (-96.83920000000001 32.822195),Northwest Dallas
134,2327 W Lovers Ln,150000, Dallas,TX,75235,3 ,1 ,1210,House,32.838215000000005,-96.85919200000001,POINT (-96.85919200000001 32.83821500000001),Northwest Dallas
156,3104 Longbow Ct,334700, Dallas,TX,75229,3 ,2 ,1356,House,32.907671,-96.87191999999999,POINT (-96.87191999999999 32.907671),Northwest Dallas
189,3718 Jubilee Trl,799999, Dallas,TX,75229,5 ,4 ,3586,House,32.900295,-96.855264,POINT (-96.85526400000001 32.900295),Northwest Dallas
210,3757 Royal Cove Dr,899999, Dallas,TX,75229,5 ,5 ,3331,House,32.894090999999996,-96.853757,POINT (-96.853757 32.894091),Northwest Dallas
216,3663 Pallos Verdas Dr,514900, Dallas,TX,75229,4 ,3 ,2367,House,32.905262,-96.857731,POINT (-96.857731 32.905262),Northwest Dallas
224,3045 Park Ln APT 1037,75000, Dallas,TX,75220,2 ,2 ,969,Townhouse,32.875842999999996,-96.875462,POINT (-96.875462 32.875843),Northwest Dallas
229,4109 Flintridge Dr,550000, Dallas,TX,75244,5 ,3 ,2678,House,32.920621000000004,-96.840649,POINT (-96.840649 32.920621),Northwest Dallas
268,10443 Heather Ln,695000, Dallas,TX,75229,3 ,2 ,2346,House,32.889303000000005,-96.852925,POINT (-96.852925 32.88930300000001),Northwest Dallas
279,10217 Betty Jane Ln,1549500, Dallas,TX,75229,5 ,7 ,5700,House,32.885259000000005,-96.854463,POINT (-96.854463 32.885259),Northwest Dallas
291,11833 High Meadow Dr,339900, Dallas,TX,75234,3 ,2 ,1504,House,32.910887,-96.86872,POINT (-96.86872 32.910887),Northwest Dallas
296,4818 W University Blvd,929000, Dallas,TX,75209,4 ,4 ,3193,House,32.844922,-96.82798199999999,POINT (-96.82798199999999 32.844922),Northwest Dallas
300,3748 Royal Ln,774900, Dallas,TX,75229,4 ,4 ,3589,House,32.895015,-96.853771,POINT (-96.85377099999999 32.895015),Northwest Dallas
308,3865 Antigua Dr,550000, Dallas,TX,75244,4 ,3 ,2655,House,32.919676,-96.848699,POINT (-96.848699 32.919676),Northwest Dallas
311,4310 Rosser Sq,325000, Dallas,TX,75244,2 ,2 ,1172,House,32.920426,-96.845343,POINT (-96.845343 32.920426),Northwest Dallas
322,3045 Park Ln APT 1063,98900, Dallas,TX,75220,2 ,2 ,969,Condo,32.875842999999996,-96.875462,POINT (-96.875462 32.875843),Northwest Dallas
352,3390 Northaven Rd,499500, Dallas,TX,75229,4 ,3 ,2459,House,32.901878,-96.863601,POINT (-96.863601 32.901878),Northwest Dallas
363,3804 Eaton Dr,419999, Dallas,TX,75220,3 ,2 ,1379,House,32.864351,-96.852785,POINT (-96.852785 32.864351),Northwest Dallas
365,4107 Willow Ridge Dr,850000, Dallas,TX,75244,4 ,4 ,3408,House,32.913884,-96.840701,POINT (-96.840701 32.913884),Northwest Dallas
381,10010 Coppedge Ln,495000, Dallas,TX,75229,3 ,2 ,1637,House,32.880714000000005,-96.850937,POINT (-96.850937 32.880714),Northwest Dallas
383,4046 Beechwood Ln,449000, Dallas,TX,75220,3 ,1 ,1247,House,32.876185,-96.844349,POINT (-96.84434899999999 32.876185),Northwest Dallas
388,4058 Davila Dr,1450000, Dallas,TX,75220,4 ,5 ,5869,House,32.867937,-96.842731,POINT (-96.842731 32.867937),Northwest Dallas
389,2320 Stutz Dr #C2,399000, Dallas,TX,75235,3 ,3 ,1798,Condo,32.821804,-96.839664,POINT (-96.839664 32.821804),Northwest Dallas
395,23 Wimberley Ct,850000, Dallas,TX,75229,4 ,5 ,3705,House,32.882386,-96.853483,POINT (-96.853483 32.882386),Northwest Dallas
396,3229 Flowerdale Ln,510000, Dallas,TX,75229,4 ,3 ,2170,House,32.894096000000005,-96.87171,POINT (-96.87170999999999 32.894096),Northwest Dallas
409,3045 Park Ln APT 1078,125000, Dallas,TX,75220,2 ,2 ,969,Condo,32.875842999999996,-96.875462,POINT (-96.875462 32.875843),Northwest Dallas
414,3711 Hawick Ln,417000, Dallas,TX,75220,3 ,3 ,1484,House,32.863518,-96.85544499999999,POINT (-96.85544499999999 32.863518),Northwest Dallas
421,2112 Shea Rd #102,319900, Dallas,TX,75235,2 ,3 ,1290,Condo,32.828907,-96.853957,POINT (-96.85395699999999 32.828907),Northwest Dallas
465,4130 Cochran Chapel Rd,5895000, Dallas,TX,75209,5 ,8 ,8984,House,32.861239000000005,-96.84086500000001,POINT (-96.84086500000001 32.861239),Northwest Dallas
479,3519 Nogales Dr,200000, Dallas,TX,75220,3 ,2 ,1638,Multi-family,32.872227,-96.861857,POINT (-96.861857 32.872227),Northwest Dallas
511,3640 Pallos Verdas Dr,539900, Dallas,TX,75229,4 ,3 ,2764,House,32.905037,-96.858616,POINT (-96.858616 32.905037),Northwest Dallas
539,3611 Parkridge Dr APT 102,125000, Dallas,TX,75234,2 ,2 ,967,Condo,32.911627,-96.858009,POINT (-96.858009 32.911627),Northwest Dallas
546,6611 Starling Cir,615999, Dallas,TX,75209,4 ,3 ,2720,House,32.838659,-96.826043,POINT (-96.826043 32.838659),Northwest Dallas
560,10910 Candlelight Ln,1699000, Dallas,TX,75229,5 ,5 ,5353,House,32.89635,-96.845934,POINT (-96.845934 32.89635),Northwest Dallas
581,10829 Damon Ln,449000, Dallas,TX,75229,4 ,3 ,2213,House,32.896406,-96.869872,POINT (-96.869872 32.896406),Northwest Dallas
583,11111 Candlelight Ln,825000, Dallas,TX,75229,4 ,3 ,2593,House,32.900059000000006,-96.845887,POINT (-96.845887 32.90005900000001),Northwest Dallas
627,9438 Green Terrace Dr,749000, Dallas,TX,75220,4 ,4 ,3042,House,32.864591,-96.84790600000001,POINT (-96.84790600000001 32.864591),Northwest Dallas
634,3839 Antigua Dr,445000, Dallas,TX,75244,3 ,2 ,2131,House,32.919584,-96.849717,POINT (-96.849717 32.919584),Northwest Dallas
649,3458 Saint Cloud Cir,450000, Dallas,TX,75229,3 ,2 ,2331,House,32.907627000000005,-96.862018,POINT (-96.86201800000001 32.90762700000001),Northwest Dallas
15,5822 Worth St,440000, Dallas,TX,75214,3 ,2 ,1518,House,32.806885,-96.756486,POINT (-96.756486 32.806885),Lakewood
23,6734 Blessing Dr,490000, Dallas,TX,75214,3 ,2 ,1552,House,32.844024,-96.74350600000001,POINT (-96.74350600000001 32.844024),Lakewood
63,6366 Vanderbilt Ave,849900, Dallas,TX,75214,3 ,3 ,2576,House,32.824396,-96.75324,POINT (-96.75324000000001 32.824396),Lakewood
87,4303 Skillman St,599900, Dallas,TX,75206,4 ,3 ,2508,House,32.83846,-96.761424,POINT (-96.76142400000001 32.83846),Lakewood
131,5004 Rexton Ln,899000, Dallas,TX,75214,3 ,3 ,2370,House,32.847607,-96.747265,POINT (-96.747265 32.847607),Lakewood
138,6235 Ellsworth Ave,1100000, Dallas,TX,75214,4 ,3 ,3081,House,32.83378,-96.756738,POINT (-96.756738 32.83378),Lakewood
159,6722 Sondra Dr,1695000, Dallas,TX,75214,6 ,6 ,4955,House,32.826701,-96.74501500000001,POINT (-96.74501500000001 32.826701),Lakewood
191,6151 Bryan Pkwy,699990, Dallas,TX,75206,3 ,2 ,2234,House,32.810884,-96.761303,POINT (-96.761303 32.810884),Lakewood
207,6475 Sondra Dr,1495000, Dallas,TX,75214,4 ,5 ,4499,House,32.826599,-96.750477,POINT (-96.750477 32.826599),Lakewood
215,6240 Saratoga Cir,659000, Dallas,TX,75214,3 ,2 ,2061,House,32.842228000000006,-96.756637,POINT (-96.756637 32.84222800000001),Lakewood
310,6911 Pasadena Ave,1295000, Dallas,TX,75214,4 ,5 ,4219,House,32.818163,-96.738886,POINT (-96.73888599999999 32.818163),Lakewood
318,6280 Prospect Ave,1299000, Dallas,TX,75214,5 ,6 ,5411,House,32.815020000000004,-96.755526,POINT (-96.755526 32.81502),Lakewood
319,6933 Delrose Dr,1675000, Dallas,TX,75214,4 ,4 ,3835,House,32.825456,-96.739501,POINT (-96.739501 32.825456),Lakewood
332,6540 Sondra Dr,1400000, Dallas,TX,75214,4 ,5 ,5029,House,32.826547,-96.748285,POINT (-96.748285 32.826547),Lakewood
367,7207 La Vista Dr,1300000, Dallas,TX,75214,4 ,5 ,4339,House,32.809635,-96.73473,POINT (-96.73473 32.809635),Lakewood
368,6556 Ridgemont Dr,515000, Dallas,TX,75214,3 ,3 ,1952,House,32.850082,-96.74754300000001,POINT (-96.74754300000001 32.850082),Lakewood
373,6322 Anita St,549900, Dallas,TX,75214,2 ,2 ,1472,House,32.834609,-96.75405699999999,POINT (-96.75405699999999 32.834609),Lakewood
403,7123 E Mockingbird Ln,435000, Dallas,TX,75214,2 ,2 ,1500,House,32.846115999999995,-96.737093,POINT (-96.737093 32.84611599999999),Lakewood
578,6406 Malcolm Dr,749500, Dallas,TX,75214,5 ,4 ,2917,House,32.830181,-96.752319,POINT (-96.752319 32.830181),Lakewood
592,7416 Coronado Ave APT 12,325000, Dallas,TX,75214,2 ,2 ,1660,Townhouse,32.808309,-96.731347,POINT (-96.731347 32.808309),Lakewood
18,3408 Hammerly Dr,370000, Dallas,TX,75212,3 ,3 ,2000,House,32.784455,-96.89885100000001,POINT (-96.89885100000001 32.784455),West Dallas
24,5421 Black Hawk St,349900, Dallas,TX,75212,4 ,3 ,2175,House,32.767264000000004,-96.906869,POINT (-96.906869 32.767264),West Dallas
36,1941 Life Ave,404900, Dallas,TX,75212,4 ,2 ,1867,House,32.786306,-96.851997,POINT (-96.851997 32.786306),West Dallas
65,4030 Vineyard Dr,375000, Dallas,TX,75212,5 ,4 ,2931,House,32.791131,-96.87606600000001,POINT (-96.87606600000001 32.791131),West Dallas
155,1966 Dennison St,399999, Dallas,TX,75212,4 ,2 ,1867,House,32.781814000000004,-96.853078,POINT (-96.853078 32.781814),West Dallas
258,3624 Mcbroom St,90000, Dallas,TX,75212,2 ,1 ,612,House,32.782758,-96.880415,POINT (-96.880415 32.782758),West Dallas
304,12364 Halima St,375000, Dallas,TX,75243,4 ,4 ,2341,Condo,32.812518,-96.88741999999999,POINT (-96.88741999999999 32.812518),West Dallas
309,2050 Bickers St,429000, Dallas,TX,75212,4 ,3 ,1913,House,32.787103,-96.855538,POINT (-96.855538 32.787103),West Dallas
362,3503 Chicago St,311000, Dallas,TX,75212,3 ,2 ,1288,House,32.784859999999995,-96.842991,POINT (-96.842991 32.78485999999999),West Dallas
375,4138 Palacios Ave,414900, Dallas,TX,75212,4 ,3 ,2384,House,32.793082,-96.902489,POINT (-96.902489 32.793082),West Dallas
456,1011 Gallagher St,250000, Dallas,TX,75212,3 ,2 ,1230,House,32.784657,-96.839036,POINT (-96.83903599999999 32.784657),West Dallas
515,1121 Bayonne St #101,489900, Dallas,TX,75212,3 ,3 ,2142,Multi-family,32.775684999999996,-96.84085300000001,POINT (-96.84085300000001 32.775685),West Dallas
609,3422 Topeka Ave,250000, Dallas,TX,75212,2 ,1 ,1004,House,32.78475,-96.834772,POINT (-96.834772 32.78475),West Dallas
19,8505 Lockhaven Dr,369900, Dallas,TX,75238,3 ,2 ,1426,House,32.864662,-96.707713,POINT (-96.707713 32.864662),Northeast Dallas
43,10034 Clearmeadow Dr,515000, Dallas,TX,75238,4 ,3 ,2211,House,32.885806,-96.715818,POINT (-96.715818 32.885806),Northeast Dallas
70,10420 Lanshire Dr,300000, Dallas,TX,75238,3 ,2 ,1414,House,32.868266999999996,-96.706761,POINT (-96.706761 32.868267),Northeast Dallas
83,9759 Lanward Dr,475000, Dallas,TX,75238,4 ,2 ,2177,House,32.880074,-96.702575,POINT (-96.702575 32.880074),Northeast Dallas
106,9840 Tanglevine Dr,629900, Dallas,TX,75238,4 ,3 ,3004,House,32.887570000000004,-96.71618000000001,POINT (-96.71618000000001 32.88757),Northeast Dallas
114,9309 Moss Farm Ln,775000, Dallas,TX,75243,4 ,3 ,3659,House,32.895913,-96.738474,POINT (-96.738474 32.895913),Northeast Dallas
168,8531 Coppertowne Ln,289900, Dallas,TX,75243,3 ,3 ,1958,Townhouse,32.896337,-96.726822,POINT (-96.726822 32.896337),Northeast Dallas
170,9459 Arborhill Dr,448500, Dallas,TX,75243,4 ,4 ,2930,House,32.906852,-96.730418,POINT (-96.730418 32.906852),Northeast Dallas
171,8810 Plano Pkwy,615000, Dallas,TX,75238,5 ,4 ,3259,House,32.868039,-96.700199,POINT (-96.700199 32.868039),Northeast Dallas
186,7418 Fair Oaks Ave #B4,289000, Dallas,TX,75231,2 ,3 ,2109,Condo,32.87545,-96.75389799999999,POINT (-96.75389799999999 32.87545),Northeast Dallas
199,10039 Shadyview Dr,450000, Dallas,TX,75238,3 ,2 ,1982,House,32.872553,-96.71113199999999,POINT (-96.71113199999999 32.872553),Northeast Dallas
200,9312 Coral Cove Dr,699500, Dallas,TX,75243,4 ,4 ,3583,House,32.903662,-96.73714,POINT (-96.73714 32.903662),Northeast Dallas
202,8905 Covey Ct,379000, Dallas,TX,75238,3 ,2 ,1705,House,32.869946999999996,-96.690118,POINT (-96.690118 32.869947),Northeast Dallas
203,6900 Skillman St APT 111,115000, Dallas,TX,75231,2 ,2 ,1024,Condo,32.870779999999996,-96.735055,POINT (-96.735055 32.87078),Northeast Dallas
214,8109 Skillman St APT 3005,115000, Dallas,TX,75231,2 ,2 ,1047,Condo,32.890485999999996,-96.72955300000001,POINT (-96.72955300000001 32.890486),Northeast Dallas
223,7807 High Oaks Cir,300000, Dallas,TX,75231,3 ,2 ,1635,House,32.88157,-96.746996,POINT (-96.746996 32.88157),Northeast Dallas
227,9707 Highland View Dr,319900, Dallas,TX,75238,3 ,3 ,2088,Townhouse,32.893968,-96.719031,POINT (-96.719031 32.893968),Northeast Dallas
250,9611 Atherton Dr,500000, Dallas,TX,75243,4 ,3 ,2677,House,32.903034000000005,-96.731707,POINT (-96.731707 32.90303400000001),Northeast Dallas
330,9543 Millridge Dr,498000, Dallas,TX,75243,4 ,3 ,2428,House,32.904796000000005,-96.731155,POINT (-96.731155 32.904796),Northeast Dallas
338,9547 Mossridge Dr,589000, Dallas,TX,75238,4 ,3 ,2298,House,32.877235999999996,-96.72855899999999,POINT (-96.72855899999999 32.877236),Northeast Dallas
343,9910 Royal Ln APT 706,172500, Dallas,TX,75231,2 ,2 ,1070,Condo,32.894427,-96.723314,POINT (-96.723314 32.894427),Northeast Dallas
348,8055 Meadow Rd APT 206,155000, Dallas,TX,75231,2 ,3 ,1433,Townhouse,32.887475,-96.767684,POINT (-96.767684 32.887475),Northeast Dallas
355,7753 Goforth Cir,579000, Dallas,TX,75238,2 ,2 ,1700,House,32.86649,-96.730013,POINT (-96.730013 32.86649),Northeast Dallas
360,8542 Coppertowne Ln,309000, Dallas,TX,75243,3 ,3 ,2003,Townhouse,32.897085,-96.726474,POINT (-96.726474 32.897085),Northeast Dallas
407,8608 Richardson Branch Trl,639000, Dallas,TX,75243,4 ,3 ,3054,House,32.896246000000005,-96.749844,POINT (-96.749844 32.896246),Northeast Dallas
425,60 Vanguard Way,1699000, Dallas,TX,75243,5 ,6 ,4665,House,32.901011,-96.76400100000001,POINT (-96.76400100000001 32.901011),Northeast Dallas
429,6630 Eastridge Dr APT 130,139000, Dallas,TX,75231,2 ,4 ,1496,Townhouse,32.864913,-96.749881,POINT (-96.749881 32.864913),Northeast Dallas
441,8672 Thorbrush Pl,595000, Dallas,TX,75238,4 ,4 ,3327,House,32.866823,-96.700973,POINT (-96.700973 32.866823),Northeast Dallas
448,6610 Eastridge Dr APT 217,95400, Dallas,TX,75231,2 ,2 ,1078,Condo,32.86459,-96.749814,POINT (-96.749814 32.86459),Northeast Dallas
466,8555 Fair Oaks Xing APT 602,124999, Dallas,TX,75243,2 ,1 ,888,Townhouse,32.896361999999996,-96.72815,POINT (-96.72815 32.896362),Northeast Dallas
473,7706 Lemmonwood Dr,475000, Dallas,TX,75231,3 ,2 ,1977,House,32.887233,-96.733745,POINT (-96.733745 32.887233),Northeast Dallas
493,5750 Phoenix Dr APT 9,168000, Dallas,TX,75231,2 ,3 ,1168,Condo,32.876159,-96.759341,POINT (-96.75934100000001 32.876159),Northeast Dallas
500,9751 Larchcrest Dr,975000, Dallas,TX,75238,4 ,4 ,3800,House,32.881192,-96.71188000000001,POINT (-96.71188000000001 32.881192),Northeast Dallas
505,8010 Eagle Trl,1255000, Dallas,TX,75238,5 ,6 ,4092,House,32.867032,-96.725946,POINT (-96.72594599999999 32.867032),Northeast Dallas
508,7660 Skillman St APT 402,169999, Dallas,TX,75231,2 ,3 ,991,Condo,32.887515,-96.732743,POINT (-96.732743 32.887515),Northeast Dallas
518,1 Vanguard Way,3349900, Dallas,TX,75243,4 ,5 ,4336,House,32.904388,-96.76339200000001,POINT (-96.76339200000001 32.904388),Northeast Dallas
535,7418 Fair Oaks Ave APT F,269000, Dallas,TX,75231,2 ,2 ,1899,Condo,32.87545,-96.75389799999999,POINT (-96.75389799999999 32.87545),Northeast Dallas
536,9730 Fieldcrest Dr,1200000, Dallas,TX,75238,5 ,5 ,4670,House,32.879891,-96.723915,POINT (-96.72391500000001 32.879891),Northeast Dallas
553,7304 Parkshire Ave,795000, Dallas,TX,75231,5 ,4 ,3980,House,32.881009000000006,-96.745579,POINT (-96.74557900000001 32.88100900000001),Northeast Dallas
557,10708 Haven Creek Ct,619000, Dallas,TX,75238,4 ,4 ,2967,House,32.872184000000004,-96.699577,POINT (-96.69957700000001 32.872184),Northeast Dallas
608,11046 Mccree Rd,465000, Dallas,TX,75238,3 ,2 ,1895,House,32.874443,-96.691395,POINT (-96.691395 32.874443),Northeast Dallas
642,10914 Giddings Cir,395000, Dallas,TX,75238,3 ,2 ,1446,House,32.873535,-96.69698299999999,POINT (-96.69698299999999 32.873535),Northeast Dallas
647,8085 Meadow Rd APT 226,229000, Dallas,TX,75231,3 ,2 ,1433,Condo,32.887473,-96.76737,POINT (-96.76737 32.887473),Northeast Dallas
651,8435 Coppertowne Ln,325000, Dallas,TX,75243,3 ,2 ,1855,Townhouse,32.895364,-96.727046,POINT (-96.727046 32.895364),Northeast Dallas
20,10729 Sandpiper Ln #21,275000, Dallas,TX,75230,3 ,3 ,1770,Townhouse,32.892825,-96.776949,POINT (-96.776949 32.892825),North Dallas
35,4711 Forest Bend Rd,625000, Dallas,TX,75244,4 ,4 ,2947,House,32.923315,-96.828819,POINT (-96.828819 32.923315),North Dallas
59,5400 Edlen Dr,7995000, Dallas,TX,75220,5 ,10 ,15921,House,32.878601,-96.815392,POINT (-96.815392 32.878601),North Dallas
115,11921 Forest Lakes Ln,799500, Dallas,TX,75230,3 ,4 ,3543,House,32.91121,-96.796541,POINT (-96.796541 32.91121),North Dallas
120,7371 Lane Park Ct,829000, Dallas,TX,75225,3 ,3 ,3146,House,32.870459000000004,-96.78177,POINT (-96.78176999999999 32.870459),North Dallas
133,4231 Northaven Rd,995000, Dallas,TX,75229,4 ,4 ,3881,House,32.902195,-96.836875,POINT (-96.83687500000001 32.902195),North Dallas
143,5972 Burgundy Rd,1500000, Dallas,TX,75230,3 ,4 ,5126,House,32.897218,-96.80425699999999,POINT (-96.80425699999999 32.897218),North Dallas
150,7023 Preston Grove Ln,1125000, Dallas,TX,75230,4 ,5 ,3871,House,32.913332000000004,-96.782888,POINT (-96.782888 32.913332),North Dallas
151,11406 Crest Brook Dr,1195000, Dallas,TX,75230,4 ,4 ,4062,House,32.903945,-96.79784000000001,POINT (-96.79784000000001 32.903945),North Dallas
157,7333 Valley View Ln #706,363900, Dallas,TX,75240,2 ,3 ,1350,Townhouse,32.926437,-96.779286,POINT (-96.779286 32.926437),North Dallas
172,4915 Willow Ln,848000, Dallas,TX,75244,5 ,5 ,4001,House,32.914263,-96.822395,POINT (-96.822395 32.914263),North Dallas
175,4202 Bonham St,925000, Dallas,TX,75229,3 ,2 ,1700,House,32.888548,-96.838171,POINT (-96.838171 32.888548),North Dallas
188,6433 Woodland Dr,1575000, Dallas,TX,75225,4 ,6 ,5282,House,32.872495,-96.794024,POINT (-96.79402399999999 32.872495),North Dallas
192,11555 W Ricks Cir,5450000, Dallas,TX,75230,7 ,10 ,7903,House,32.905404,-96.7937,POINT (-96.7937 32.905404),North Dallas
198,6530 Lupton Dr,3175000, Dallas,TX,75225,5 ,6 ,6727,House,32.876903999999996,-96.792076,POINT (-96.79207599999999 32.876904),North Dallas
208,4419 W Northwest Hwy,760000, Dallas,TX,75220,2 ,2 ,2156,House,32.863707,-96.83428599999999,POINT (-96.83428599999999 32.863707),North Dallas
213,11041 Lawnhaven Rd,2150000, Dallas,TX,75230,5 ,7 ,7285,House,32.898573,-96.794221,POINT (-96.79422099999999 32.898573),North Dallas
218,6814 Northport Dr,2699999, Dallas,TX,75230,5 ,7 ,6788,House,32.890371,-96.787754,POINT (-96.78775400000001 32.890371),North Dallas
222,10405 High Hollows Dr #205,240000, Dallas,TX,75230,3 ,3 ,1647,Condo,32.887274,-96.77283299999999,POINT (-96.77283299999999 32.887274),North Dallas
234,4365 Boca Bay Dr,849000, Dallas,TX,75244,5 ,4 ,3082,House,32.916375,-96.835487,POINT (-96.835487 32.916375),North Dallas
263,4239 San Gabriel Dr,799000, Dallas,TX,75229,3 ,3 ,2537,House,32.899113,-96.83630600000001,POINT (-96.83630600000001 32.899113),North Dallas
280,7109 Alpha Rd,650000, Dallas,TX,75240,4 ,4 ,2945,House,32.931771000000005,-96.781716,POINT (-96.781716 32.931771),North Dallas
283,7415 Kenshire Ln,2199000, Dallas,TX,75230,6 ,8 ,5790,House,32.907868,-96.777328,POINT (-96.777328 32.907868),North Dallas
302,5431 Ursula Ln,4795000, Dallas,TX,75229,5 ,8 ,10040,House,32.891107,-96.814207,POINT (-96.814207 32.891107),North Dallas
305,10234 Epping Ln,3795000, Dallas,TX,75229,5 ,9 ,7513,House,32.885231,-96.832195,POINT (-96.832195 32.885231),North Dallas
323,6645 Northaven Rd,6499000, Dallas,TX,75230,7 ,12 ,14795,House,32.902081,-96.79126,POINT (-96.79125999999999 32.902081),North Dallas
337,6032 Linden Ln,719900, Dallas,TX,75230,5 ,4 ,4196,House,32.922546000000004,-96.80221,POINT (-96.80221 32.922546),North Dallas
339,10802 Dove Brook Cir,985000, Dallas,TX,75230,4 ,4 ,4252,House,32.895813000000004,-96.773312,POINT (-96.773312 32.895813),North Dallas
340,5514 Lobello Dr,4295000, Dallas,TX,75229,5 ,7 ,8463,House,32.892559999999996,-96.813496,POINT (-96.813496 32.89256),North Dallas
344,7705 Meadow Park Dr APT 110,143800, Dallas,TX,75230,2 ,2 ,1135,Condo,32.884389,-96.774849,POINT (-96.774849 32.884389),North Dallas
346,5943 Walnut Hill Ln,3100000, Dallas,TX,75230,5 ,8 ,9732,House,32.880124,-96.805035,POINT (-96.805035 32.880124),North Dallas
356,5335 Meaders Ln,10250000, Dallas,TX,75229,6 ,8 ,12612,House,32.885442,-96.81607,POINT (-96.81607 32.885442),North Dallas
366,5445 N Dentwood Dr,8950000, Dallas,TX,75220,5 ,10 ,13663,House,32.868473,-96.814245,POINT (-96.814245 32.868473),North Dallas
370,6223 Walnut Hill Ln,1385000, Dallas,TX,75230,4 ,4 ,4349,House,32.880094,-96.798997,POINT (-96.798997 32.880094),North Dallas
377,11410 Park Central Pl #C,150000, Dallas,TX,75230,3 ,2 ,1318,Condo,32.904779,-96.771507,POINT (-96.771507 32.904779),North Dallas
390,7826 Royal Ln APT 207,143500, Dallas,TX,75230,2 ,2 ,1092,Condo,32.898177000000004,-96.771826,POINT (-96.771826 32.898177),North Dallas
408,6707 Pemberton Dr,2895000, Dallas,TX,75230,5 ,7 ,6487,House,32.891494,-96.78971,POINT (-96.78971 32.891494),North Dallas
422,6515 Walnut Hill Ln,1150000, Dallas,TX,75230,4 ,4 ,4508,House,32.879884000000004,-96.792477,POINT (-96.79247700000001 32.879884),North Dallas
438,5115 Royal Crest Dr,2550000, Dallas,TX,75229,4 ,4 ,5796,House,32.898548,-96.820375,POINT (-96.820375 32.898548),North Dallas
442,12023 Shirestone Ln,889900, Dallas,TX,75244,4 ,4 ,3852,House,32.912694,-96.82224000000001,POINT (-96.82224000000001 32.912694),North Dallas
450,4727 Thunder Rd,650000, Dallas,TX,75244,4 ,4 ,3562,House,32.925039,-96.827745,POINT (-96.82774499999999 32.925039),North Dallas
458,6529 Del Norte Ln,1219000, Dallas,TX,75225,4 ,5 ,4110,Multi-family,32.868718,-96.79288199999999,POINT (-96.79288199999999 32.868718),North Dallas
462,4945 Thunder Rd,289000, Dallas,TX,75244,3 ,3 ,2406,Multi-family,32.924834000000004,-96.823704,POINT (-96.82370400000001 32.924834),North Dallas
464,11946 Tavel Cir,599000, Dallas,TX,75230,3 ,3 ,2825,Multi-family,32.912071000000005,-96.802463,POINT (-96.802463 32.912071),North Dallas
468,5226 Kelsey Rd,4300000, Dallas,TX,75229,5 ,7 ,7202,House,32.886466999999996,-96.817655,POINT (-96.817655 32.886467),North Dallas
475,5610 Ursula Ln,2190000, Dallas,TX,75229,4 ,7 ,6705,House,32.891117,-96.810242,POINT (-96.810242 32.891117),North Dallas
483,6917 Forest Glen Dr,1532000, Dallas,TX,75230,4 ,6 ,5491,House,32.913277,-96.785392,POINT (-96.785392 32.913277),North Dallas
487,7929 Meadow Park Dr APT 101,199000, Dallas,TX,75230,2 ,2 ,1033,Townhouse,32.885388,-96.771174,POINT (-96.771174 32.885388),North Dallas
488,5523 Walnut Hill Ln,11995000, Dallas,TX,75229,5 ,9 ,10493,House,32.880161,-96.813041,POINT (-96.813041 32.880161),North Dallas
498,7631 Meadow Rd,616900, Dallas,TX,75230,4 ,3 ,2723,House,32.886507,-96.775245,POINT (-96.775245 32.886507),North Dallas
509,12704 Sunlight Dr,820000, Dallas,TX,75230,3 ,3 ,3087,House,32.919253999999995,-96.800776,POINT (-96.800776 32.919254),North Dallas
514,6215 Lupton Dr,3595000, Dallas,TX,75225,6 ,10 ,8030,House,32.876944,-96.799199,POINT (-96.799199 32.876944),North Dallas
519,5722 Park Ln,7850000, Dallas,TX,75225,5 ,7 ,7998,House,32.873938,-96.809534,POINT (-96.809534 32.873938),North Dallas
538,6605 Del Norte Ln,1595000, Dallas,TX,75225,4 ,5 ,4063,Multi-family,32.868722,-96.79130699999999,POINT (-96.79130699999999 32.868722),North Dallas
544,6123 Orchid Ln,2699000, Dallas,TX,75230,5 ,7 ,5664,House,32.892407,-96.800915,POINT (-96.800915 32.892407),North Dallas
547,4441 Hockaday Dr,1299999, Dallas,TX,75229,4 ,6 ,4521,House,32.907142,-96.83280400000001,POINT (-96.83280400000001 32.907142),North Dallas
548,6115 Averill Way APT D,288500, Dallas,TX,75225,2 ,2 ,1720,Condo,32.866477,-96.801633,POINT (-96.801633 32.866477),North Dallas
552,5950 Lindenshire Ln APT 201,364900, Dallas,TX,75230,2 ,3 ,1335,Condo,32.912351,-96.80554000000001,POINT (-96.80554000000001 32.912351),North Dallas
554,4411 Sexton Ln,499500, Dallas,TX,75229,3 ,2 ,1838,House,32.886783,-96.834112,POINT (-96.834112 32.886783),North Dallas
567,7007 Royal Ln,769000, Dallas,TX,75230,3 ,3 ,2581,House,32.894846,-96.785275,POINT (-96.785275 32.894846),North Dallas
569,7212 Glendora Ave,950000, Dallas,TX,75230,4 ,5 ,4078,House,32.885296000000004,-96.77973,POINT (-96.77973 32.885296),North Dallas
573,7711 Glen Albens Cir,3495000, Dallas,TX,75225,4 ,6 ,7195,House,32.878454999999995,-96.773878,POINT (-96.773878 32.878455),North Dallas
598,11627 Forest Creek Pl,2950000, Dallas,TX,75230,5 ,7 ,6927,House,32.907315999999994,-96.79304,POINT (-96.79304 32.90731599999999),North Dallas
604,6452 Lavendale Ave,1892000, Dallas,TX,75230,6 ,6 ,4914,House,32.895905,-96.79436,POINT (-96.79436 32.895905),North Dallas
612,12385 Montego Plz,350000, Dallas,TX,75230,2 ,3 ,2188,Townhouse,32.918676,-96.813106,POINT (-96.813106 32.918676),North Dallas
614,12816 Midway Rd APT 2049,137000, Dallas,TX,75244,2 ,2 ,851,Condo,32.923184,-96.83808499999999,POINT (-96.83808499999999 32.923184),North Dallas
615,6938 Pemberton Dr,1274990, Dallas,TX,75230,5 ,5 ,4610,House,32.890925,-96.78551,POINT (-96.78551 32.890925),North Dallas
619,9919 Avalon Creek Ct,2488000, Dallas,TX,75230,5 ,5 ,6638,House,32.883445,-96.80837199999999,POINT (-96.80837199999999 32.883445),North Dallas
632,10767 Villager Rd #A,235000, Dallas,TX,75230,2 ,2 ,1160,Townhouse,32.894321999999995,-96.807487,POINT (-96.80748699999999 32.894322),North Dallas
635,6349 Diamond Head Cir APT C,280000, Dallas,TX,75225,2 ,2 ,1528,Condo,32.866335,-96.797337,POINT (-96.797337 32.866335),North Dallas
650,5505 Charlestown Dr,1495000, Dallas,TX,75230,5 ,5 ,4897,House,32.917888,-96.816164,POINT (-96.816164 32.917888),North Dallas
37,1200 Main St APT 2606,389000, Dallas,TX,75202,2 ,2 ,1379,Condo,32.780187,-96.801325,POINT (-96.80132500000001 32.780187),Downtown
85,1393 Arch Pl,569000, Dallas,TX,75215,3 ,5 ,2471,Townhouse,32.777977,-96.796215,POINT (-96.796215 32.777977),Downtown
105,627 Aspen Valley Ln,550000, Dallas,TX,75208,3 ,3 ,2338,House,32.777977,-96.796215,POINT (-96.796215 32.777977),Downtown
135,1001 Belleview St #1003,400000, Dallas,TX,75215,2 ,2 ,1120,Condo,32.768806,-96.794679,POINT (-96.794679 32.768806),Downtown
164,509 Elm St APT 406,349900, Dallas,TX,75202,2 ,2 ,1542,Townhouse,32.779699,-96.807463,POINT (-96.807463 32.779699),Downtown
242,1505 Elm St APT 703,399000, Dallas,TX,75201,3 ,3 ,2045,Condo,32.781379,-96.799552,POINT (-96.79955200000001 32.781379),Downtown
284,17746 Shumard Oak Dr,425000, Dallas,TX,75252,3 ,3 ,1921,Townhouse,32.777977,-96.796215,POINT (-96.796215 32.777977),Downtown
297,1122 Jackson St APT 1108,495000, Dallas,TX,75202,2 ,2 ,1523,Condo,32.778663,-96.801355,POINT (-96.801355 32.778663),Downtown
321,3775 Panalero Ln,629900, Dallas,TX,75209,3 ,3 ,2217,Townhouse,32.777977,-96.796215,POINT (-96.796215 32.777977),Downtown
325,9068 Corsair Pl,449900, Dallas,TX,75218,2 ,3 ,2040,Townhouse,32.777977,-96.796215,POINT (-96.796215 32.777977),Downtown
326,1705 Lear St #35,495000, Dallas,TX,75215,3 ,4 ,1999,Townhouse,32.769037,-96.78572700000001,POINT (-96.78572700000001 32.769037),Downtown
342,1717 Arts Plz SUITE 2307,4500000, Dallas,TX,75201,3 ,4 ,4839,Condo,32.791688,-96.793929,POINT (-96.79392900000001 32.791688),Downtown
345,5933 Evening Star Pl,470000, Dallas,TX,75235,3 ,4 ,2067,Townhouse,32.777977,-96.796215,POINT (-96.796215 32.777977),Downtown
380,1910 Woodland Heights Pl,680000, Dallas,TX,75252,4 ,5 ,2665,Townhouse,32.777977,-96.796215,POINT (-96.796215 32.777977),Downtown
393,1200 Main St APT 1904,310000, Dallas,TX,75202,2 ,2 ,1169,Condo,32.780187,-96.801325,POINT (-96.80132500000001 32.780187),Downtown
419,624 Aspen Valley Ln,530000, Dallas,TX,75208,3 ,3 ,2257,House,32.777977,-96.796215,POINT (-96.796215 32.777977),Downtown
420,4776 Asher Pl,410000, Dallas,TX,75204,2 ,3 ,1417,Townhouse,32.777977,-96.796215,POINT (-96.796215 32.777977),Downtown
433,4503 Arberry Ln,599900, Dallas,TX,75219,3 ,4 ,2210,Townhouse,32.777977,-96.796215,POINT (-96.796215 32.777977),Downtown
446,8002 Minglewood Ln,589000, Dallas,TX,75231,2 ,4 ,2416,House,32.777977,-96.796215,POINT (-96.796215 32.777977),Downtown
476,5980 Evening Star Pl,475000, Dallas,TX,75235,3 ,4 ,2011,Townhouse,32.777977,-96.796215,POINT (-96.796215 32.777977),Downtown
477,1111 S Akard St UNIT 408,249900, Dallas,TX,75215,2 ,1 ,984,Condo,32.772180999999996,-96.794488,POINT (-96.794488 32.772181),Downtown
499,1505 Elm St APT 1003,429900, Dallas,TX,75201,3 ,3 ,2045,Condo,32.781379,-96.799552,POINT (-96.79955200000001 32.781379),Downtown
524,1505 Elm St APT 505,275000, Dallas,TX,75201,2 ,2 ,1819,Condo,32.781379,-96.799552,POINT (-96.79955200000001 32.781379),Downtown
540,724 Rainwater Rd,550000, Dallas,TX,75218,3 ,3 ,2572,Townhouse,32.777977,-96.796215,POINT (-96.796215 32.777977),Downtown
549,1705 Lear St #36,517500, Dallas,TX,75215,3 ,4 ,1994,Townhouse,32.769037,-96.78572700000001,POINT (-96.78572700000001 32.769037),Downtown
566,1200 Main St APT 2609,523000, Dallas,TX,75202,2 ,2 ,1379,Condo,32.780187,-96.801325,POINT (-96.80132500000001 32.780187),Downtown
596,8221 Milroy Ln,569000, Dallas,TX,75231,3 ,3 ,2224,House,32.777977,-96.796215,POINT (-96.796215 32.777977),Downtown
605,1200 Main St APT 1009,370000, Dallas,TX,75202,2 ,2 ,1379,Condo,32.780187,-96.801325,POINT (-96.80132500000001 32.780187),Downtown
616,5981 Evening Star Pl,479900, Dallas,TX,75235,3 ,4 ,1858,Townhouse,32.777977,-96.796215,POINT (-96.796215 32.777977),Downtown
620,3967 Bowie Ln,565000, Dallas,TX,75220,3 ,3 ,2200,Townhouse,32.777977,-96.796215,POINT (-96.796215 32.777977),Downtown
639,8277 Laflin Ln,565000, Dallas,TX,75231,3 ,4 ,2376,House,32.777977,-96.796215,POINT (-96.796215 32.777977),Downtown
68,448 Josephine St,275000, Dallas,TX,75246,2 ,2 ,1274,Townhouse,32.791981,-96.773014,POINT (-96.773014 32.791981),Deep Ellum
510,4107 E Side Ave,160000, Dallas,TX,75226,2 ,2 ,1160,House,32.788121000000004,-96.769734,POINT (-96.769734 32.788121),Deep Ellum
73,4653 Country Creek Dr APT 1125,129900, Dallas,TX,75236,3 ,3 ,1368,Townhouse,32.698017,-96.898523,POINT (-96.898523 32.698017),Southwest Dallas
205,4645 Country Creek Dr APT 1098,130000, Dallas,TX,75236,2 ,2 ,1368,Condo,32.698085,-96.898349,POINT (-96.898349 32.698085),Southwest Dallas
232,7911 Sarahville Dr,799000, Dallas,TX,75252,4 ,5 ,3758,House,32.666366,-96.952211,POINT (-96.95221100000001 32.666366),Southwest Dallas
350,827 Kelso Dr,170000, Dallas,TX,75211,3 ,2 ,1364,House,32.737083,-96.922845,POINT (-96.922845 32.737083),Southwest Dallas
436,4655 Country Creek Dr APT 1137,105000, Dallas,TX,75236,2 ,2 ,1046,Condo,32.697967999999996,-96.898677,POINT (-96.89867700000001 32.697968),Southwest Dallas
576,5737 Ranchero Ln,799000, Dallas,TX,75236,4 ,6 ,5116,House,32.680105,-96.92007,POINT (-96.92007 32.680105),Southwest Dallas
91,5643 Richard Ave,750000, Dallas,TX,75206,5 ,2 ,2600,House,32.819212,-96.770501,POINT (-96.770501 32.819212),Lower Greenville
97,5335 Vickery Blvd,525000, Dallas,TX,75206,3 ,1 ,1655,House,32.822379999999995,-96.77843,POINT (-96.77843 32.82238),Lower Greenville
107,5536 Ellsworth Ave,729000, Dallas,TX,75206,3 ,2 ,2040,House,32.833622999999996,-96.772621,POINT (-96.772621 32.833623),Lower Greenville
128,6030 Mercedes Ave,840000, Dallas,TX,75206,4 ,3 ,2776,House,32.827907,-96.76231800000001,POINT (-96.76231800000001 32.827907),Lower Greenville
153,5440 Willis Ave,700000, Dallas,TX,75206,3 ,3 ,2528,House,32.820231,-96.77561999999999,POINT (-96.77561999999999 32.820231),Lower Greenville
230,3219 Homer St,599900, Dallas,TX,75206,2 ,2 ,1430,House,32.827158000000004,-96.78232,POINT (-96.78232 32.827158),Lower Greenville
254,5730 Mercedes Ave,625000, Dallas,TX,75206,3 ,2 ,1572,House,32.827940999999996,-96.768828,POINT (-96.768828 32.827941),Lower Greenville
265,5519 Ridgedale Ave,1175000, Dallas,TX,75206,4 ,3 ,3950,House,32.82547,-96.773939,POINT (-96.773939 32.82547),Lower Greenville
285,5515 Matalee Ave,649900, Dallas,TX,75206,3 ,3 ,2816,Multi-family,32.832658,-96.773733,POINT (-96.77373299999999 32.832658),Lower Greenville
331,5712 Morningside Ave,774900, Dallas,TX,75206,3 ,2 ,2598,House,32.828911,-96.76949,POINT (-96.76949 32.828911),Lower Greenville
471,5740 Martel Ave APT B14,215000, Dallas,TX,75206,2 ,2 ,929,Condo,32.831336,-96.768393,POINT (-96.768393 32.831336),Lower Greenville
503,5347 Ridgedale Ave,679000, Dallas,TX,75206,3 ,2 ,1933,House,32.825454,-96.77778,POINT (-96.77778000000001 32.825454),Lower Greenville
568,5332 Miller Ave,1290000, Dallas,TX,75206,4 ,5 ,4189,House,32.821274,-96.77844499999999,POINT (-96.77844499999999 32.821274),Lower Greenville
599,5235 Willis Ave,1000000, Dallas,TX,75206,5 ,5 ,4183,House,32.820215999999995,-96.78090999999999,POINT (-96.78090999999999 32.82021599999999),Lower Greenville
646,5336 Willis Ave,1149900, Dallas,TX,75206,5 ,4 ,3607,House,32.820219,-96.778287,POINT (-96.77828700000001 32.820219),Lower Greenville
109,408 N Prairie Ave,624900, Dallas,TX,75246,4 ,4 ,2745,House,32.796336,-96.767597,POINT (-96.76759699999999 32.796336),Old East Dallas
113,5215 E Side Ave,425000, Dallas,TX,75214,2 ,2 ,1417,House,32.797215,-96.758994,POINT (-96.758994 32.797215),Old East Dallas
117,1318 Rancho Mirage Dr,470000, Dallas,TX,75204,2 ,2 ,1902,Townhouse,32.795052,-96.783775,POINT (-96.78377500000001 32.795052),Old East Dallas
127,707 Monte Vista Dr,685000, Dallas,TX,75223,3 ,2 ,2726,House,32.805006,-96.741913,POINT (-96.741913 32.805006),Old East Dallas
142,4819 Swiss Ave APT A,325000, Dallas,TX,75204,2 ,3 ,1314,Condo,32.800599,-96.77154,POINT (-96.77154 32.800599),Old East Dallas
167,6405 E Grand Ave,475000, Dallas,TX,75223,3 ,2 ,2127,House,32.799499,-96.74108299999999,POINT (-96.74108299999999 32.799499),Old East Dallas
185,5105 Swiss Ave,2295000, Dallas,TX,75214,4 ,8 ,6262,House,32.803602000000005,-96.768171,POINT (-96.768171 32.80360200000001),Old East Dallas
384,3010 Zenia Dr,469000, Dallas,TX,75204,2 ,3 ,2016,Townhouse,32.795041999999995,-96.79207199999999,POINT (-96.79207199999999 32.795042),Old East Dallas
424,3102 Ross Ave STE 7,655000, Dallas,TX,75204,3 ,3 ,2422,Condo,32.793556,-96.791271,POINT (-96.79127099999999 32.793556),Old East Dallas
437,4610 Reiger Ave,520000, Dallas,TX,75246,3 ,3 ,2096,House,32.794007,-96.767526,POINT (-96.767526 32.794007),Old East Dallas
440,4527 Capitol Ave,410000, Dallas,TX,75204,3 ,2 ,1386,House,32.808591,-96.78537,POINT (-96.78537 32.808591),Old East Dallas
445,3105 San Jacinto St #120,224900, Dallas,TX,75204,2 ,2 ,926,Condo,32.793112,-96.789913,POINT (-96.789913 32.793112),Old East Dallas
529,3801 San Jacinto St APT D,415000, Dallas,TX,75204,3 ,2 ,2034,Condo,32.797245000000004,-96.785196,POINT (-96.785196 32.797245),Old East Dallas
572,501 Alcalde St,429000, Dallas,TX,75246,4 ,2 ,2538,House,32.79364,-96.771609,POINT (-96.771609 32.79364),Old East Dallas
617,1909 California Dr,350000, Dallas,TX,75204,3 ,2 ,1201,House,32.804928000000004,-96.781118,POINT (-96.78111800000001 32.804928),Old East Dallas
652,4620 Munger Ave #103,409900, Dallas,TX,75204,2 ,3 ,1590,Condo,32.805271999999995,-96.78022299999999,POINT (-96.78022299999999 32.805272),Old East Dallas
111,3717 Prescott Ave,599900, Dallas,TX,75219,2 ,3 ,1968,House,32.820982,-96.811378,POINT (-96.811378 32.820982),Oak Lawn
126,3126 Carlson Dr,379900, Dallas,TX,75235,3 ,2 ,1592,House,32.82525,-96.82867900000001,POINT (-96.82867900000001 32.82525),Oak Lawn
130,5016 Cedar Springs Rd,299900, Dallas,TX,75235,2 ,3 ,1463,Condo,32.82095,-96.823026,POINT (-96.823026 32.82095),Oak Lawn
162,4777 Cedar Springs Rd APT 3K,199000, Dallas,TX,75219,2 ,2 ,942,Condo,32.818917,-96.82078,POINT (-96.82078 32.818917),Oak Lawn
184,3225 Turtle Creek Blvd APT 306,264999, Dallas,TX,75219,2 ,2 ,1152,Townhouse,32.806792,-96.80368100000001,POINT (-96.80368100000001 32.806792),Oak Lawn
244,5031 Cedar Springs Rd APT 101,199900, Dallas,TX,75235,2 ,2 ,1296,Condo,32.820808,-96.82266,POINT (-96.82266 32.820808),Oak Lawn
252,2325 Hondo Ave,619000, Dallas,TX,75219,3 ,4 ,2578,Multi-family,32.807787,-96.824005,POINT (-96.824005 32.807787),Oak Lawn
257,5331 Livingston Ave,1829500, Dallas,TX,75209,4 ,6 ,3913,House,32.834808,-96.820584,POINT (-96.820584 32.834808),Oak Lawn
272,3333 Prescott Ave,325000, Dallas,TX,75219,2 ,2 ,1195,Condo,32.817945,-96.815057,POINT (-96.815057 32.817945),Oak Lawn
290,4211 Rawlins St UNIT 420,469500, Dallas,TX,75219,2 ,3 ,2021,Condo,32.815152000000005,-96.811543,POINT (-96.811543 32.815152),Oak Lawn
292,5045 Cedar Springs Rd APT 216,189999, Dallas,TX,75235,2 ,2 ,1030,Condo,32.820867,-96.822804,POINT (-96.822804 32.820867),Oak Lawn
298,2706 Throckmorton St UNIT C,499000, Dallas,TX,75219,2 ,3 ,1919,Condo,32.808452,-96.814418,POINT (-96.814418 32.808452),Oak Lawn
357,3310 Fairmount St APT 7A,399000, Dallas,TX,75201,2 ,2 ,1843,Condo,32.800934999999996,-96.80904699999999,POINT (-96.80904699999999 32.800935),Oak Lawn
386,3225 Turtle Creek Blvd APT 302,319000, Dallas,TX,75219,2 ,2 ,1150,Townhouse,32.806792,-96.80368100000001,POINT (-96.80368100000001 32.806792),Oak Lawn
399,4140 N Hall St,436000, Dallas,TX,75219,2 ,4 ,2064,Townhouse,32.813655,-96.81190699999999,POINT (-96.81190699999999 32.813655),Oak Lawn
428,4051 Throckmorton St,690000, Dallas,TX,75219,3 ,4 ,2637,Townhouse,32.818341,-96.804525,POINT (-96.804525 32.818341),Oak Lawn
431,2700 Knight St,1225000, Dallas,TX,75219,3 ,4 ,2951,House,32.809148,-96.815515,POINT (-96.815515 32.809148),Oak Lawn
434,3310 Fairmount St #7D,400000, Dallas,TX,75201,2 ,2 ,2039,Condo,32.800934999999996,-96.80904699999999,POINT (-96.80904699999999 32.800935),Oak Lawn
451,4616 Lester Dr,379000, Dallas,TX,75219,2 ,2 ,1978,Townhouse,32.813897999999995,-96.824368,POINT (-96.82436800000001 32.81389799999999),Oak Lawn
474,2334 Lucas Dr,349000, Dallas,TX,75219,3 ,2 ,1112,House,32.809566,-96.824812,POINT (-96.82481199999999 32.809566),Oak Lawn
482,4728 Bradford Dr APT A,197000, Dallas,TX,75219,2 ,1 ,936,Condo,32.816396999999995,-96.822512,POINT (-96.822512 32.81639699999999),Oak Lawn
497,4505 Rawlins St,424990, Dallas,TX,75219,3 ,4 ,2036,Townhouse,32.818211,-96.8148,POINT (-96.81480000000001 32.818211),Oak Lawn
513,5006 Cedar Springs Rd APT A,373999, Dallas,TX,75235,2 ,2 ,1751,Townhouse,32.820894,-96.822877,POINT (-96.82287700000001 32.820894),Oak Lawn
525,3225 Turtle Creek Blvd APT 1006,299000, Dallas,TX,75219,2 ,2 ,1152,Condo,32.806792,-96.80368100000001,POINT (-96.80368100000001 32.806792),Oak Lawn
534,3624 Douglas Ave,525000, Dallas,TX,75219,3 ,3 ,1758,Multi-family,32.817084,-96.80837,POINT (-96.80837 32.817084),Oak Lawn
564,4327 Holland Ave APT 107,132000, Dallas,TX,75219,2 ,1 ,784,Condo,32.818632,-96.809749,POINT (-96.809749 32.818632),Oak Lawn
565,4777 Cedar Springs Rd APT 5A,210000, Dallas,TX,75219,2 ,2 ,1015,Condo,32.818917,-96.82078,POINT (-96.82078 32.818917),Oak Lawn
571,2324 Kings Rd,225000, Dallas,TX,75219,4 ,2 ,1080,House,32.8116,-96.827373,POINT (-96.82737299999999 32.8116),Oak Lawn
589,4115 Bowser Ave APT 5,184900, Dallas,TX,75219,2 ,1 ,820,Condo,32.816064000000004,-96.808591,POINT (-96.80859100000001 32.816064),Oak Lawn
607,4027 Prescott Ave,695000, Dallas,TX,75219,4 ,2 ,3155,Multi-family,32.821702,-96.808097,POINT (-96.808097 32.821702),Oak Lawn
611,2727 Reagan St APT C,259000, Dallas,TX,75219,2 ,2 ,983,Condo,32.808261,-96.812936,POINT (-96.81293599999999 32.808261),Oak Lawn
618,2525 Turtle Creek Blvd APT 521,212500, Dallas,TX,75219,2 ,2 ,1324,Condo,32.802074,-96.808655,POINT (-96.808655 32.802074),Oak Lawn
621,4212 Bowser Ave APT C,529000, Dallas,TX,75219,3 ,4 ,2438,Condo,32.816905,-96.809567,POINT (-96.809567 32.816905),Oak Lawn
625,3615 Brown St APT B,210000, Dallas,TX,75219,2 ,1 ,827,Condo,32.804639,-96.810518,POINT (-96.810518 32.804639),Oak Lawn
629,5106 Denton Dr,380000, Dallas,TX,75235,2 ,2 ,1536,House,32.818227,-96.827607,POINT (-96.827607 32.818227),Oak Lawn
631,3225 Turtle Creek Blvd APT 820,317500, Dallas,TX,75219,2 ,2 ,1154,Condo,32.806792,-96.80368100000001,POINT (-96.80368100000001 32.806792),Oak Lawn
644,3400 Welborn St APT 311,299000, Dallas,TX,75219,2 ,2 ,1171,Condo,32.811181,-96.80430600000001,POINT (-96.80430600000001 32.811181),Oak Lawn
125,4116 Cole Ave APT 309,318000, Dallas,TX,75204,2 ,2 ,1080,Condo,32.814840000000004,-96.793304,POINT (-96.79330400000001 32.81484),Uptown
132,3030 Mckinney Ave APT 1603,385000, Dallas,TX,75204,2 ,2 ,1353,Condo,32.802025,-96.80086800000001,POINT (-96.80086800000001 32.802025),Uptown
145,3235 Cole Ave APT 100,367500, Dallas,TX,75204,2 ,3 ,1220,Condo,32.804726,-96.800538,POINT (-96.800538 32.804726),Uptown
187,4206 Buena Vista St APT C,850000, Dallas,TX,75205,3 ,3 ,2550,Townhouse,32.817869,-96.794604,POINT (-96.79460400000001 32.817869),Uptown
394,4022 Travis St UNIT C,569000, Dallas,TX,75204,2 ,3 ,2348,Townhouse,32.813884,-96.79539,POINT (-96.79539 32.813884),Uptown
447,4044 Buena Vista St APT 110,255000, Dallas,TX,75204,2 ,2 ,950,Condo,32.81483,-96.796165,POINT (-96.796165 32.81483),Uptown
461,4225 Mckinney Ave APT 1,465000, Dallas,TX,75205,2 ,3 ,2148,Townhouse,32.817127,-96.79047299999999,POINT (-96.79047299999999 32.817127),Uptown
470,4111 Cole Ave APT 20,269000, Dallas,TX,75204,2 ,2 ,915,Condo,32.815061,-96.793185,POINT (-96.79318499999999 32.815061),Uptown
478,2979 Magnolia Hill Ct,1150000, Dallas,TX,75201,2 ,3 ,2382,Townhouse,32.793469,-96.81072900000001,POINT (-96.81072900000001 32.793469),Uptown
480,2111 Clark St APT E,520000, Dallas,TX,75204,2 ,3 ,2100,Townhouse,32.796014,-96.794567,POINT (-96.794567 32.796014),Uptown
532,4061 Buena Vista St,624000, Dallas,TX,75204,3 ,3 ,2085,Townhouse,32.815156,-96.795979,POINT (-96.795979 32.815156),Uptown
570,4303 Buena Vista St APT 301,319500, Dallas,TX,75205,2 ,3 ,1220,Condo,32.819428,-96.793764,POINT (-96.793764 32.819428),Uptown
586,3237 Hugo Pl,639000, Dallas,TX,75204,2 ,3 ,2103,Townhouse,32.800345,-96.796227,POINT (-96.796227 32.800345),Uptown
595,3100 Cole Ave APT 215,299900, Dallas,TX,75204,2 ,2 ,1031,Condo,32.803114,-96.801592,POINT (-96.801592 32.803114),Uptown
633,3110 Thomas Ave APT 921,625000, Dallas,TX,75204,2 ,2 ,2453,Condo,32.798525,-96.794839,POINT (-96.794839 32.798525),Uptown
643,3130 N Harwood St APT 602,2895000, Dallas,TX,75201,3 ,4 ,2817,Condo,32.796903,-96.811584,POINT (-96.811584 32.796903),Uptown
645,2900 Mckinnon St APT 904,655000, Dallas,TX,75201,2 ,3 ,1430,Condo,32.795858,-96.80905600000001,POINT (-96.80905600000001 32.795858),Uptown
129,5515 Bryan Pkwy #104,395000, Dallas,TX,75206,2 ,3 ,1475,Condo,32.807959999999994,-96.76949,POINT (-96.76949 32.80795999999999),Lowest Greenville
147,1910 Hope St UNIT 14,475000, Dallas,TX,75206,3 ,4 ,1758,Condo,32.813091,-96.769356,POINT (-96.769356 32.813091),Lowest Greenville
194,5911 Hudson St,599000, Dallas,TX,75206,3 ,3 ,2635,Multi-family,32.810032,-96.766458,POINT (-96.766458 32.810032),Lowest Greenville
457,5604 Lindell Ave #C,399900, Dallas,TX,75206,2 ,3 ,1478,Condo,32.808894,-96.769178,POINT (-96.769178 32.808894),Lowest Greenville
469,6119 Hudson St,588000, Dallas,TX,75206,5 ,3 ,2675,House,32.810646000000006,-96.764039,POINT (-96.764039 32.81064600000001),Lowest Greenville
240,1808 Euclid Ave,975000, Dallas,TX,75206,4 ,3 ,2702,House,32.811479999999996,-96.773533,POINT (-96.773533 32.81148),Henderson Avenue
333,1725 Bennett Ave UNIT 101,354900, Dallas,TX,75206,2 ,3 ,1556,Condo,32.807838000000004,-96.77614799999999,POINT (-96.77614799999999 32.807838),Henderson Avenue
443,5000 Mission Ave,679900, Dallas,TX,75206,3 ,3 ,2656,Multi-family,32.814857,-96.78407800000001,POINT (-96.78407800000001 32.814857),Henderson Avenue
454,1844 Euclid Ave #3,615000, Dallas,TX,75206,3 ,4 ,2184,Townhouse,32.812778,-96.773534,POINT (-96.773534 32.812778),Henderson Avenue
324,5032 Matilda St APT 218,185000, Dallas,TX,75206,2 ,2 ,1055,Condo,32.847854,-96.767684,POINT (-96.767684 32.847854),Upper Greenville
371,6017 Sandhurst Ln #D,249000, Dallas,TX,75206,2 ,2 ,1361,Townhouse,32.844331,-96.76258100000001,POINT (-96.76258100000001 32.844331),Upper Greenville
385,4949 Skillman St APT 254,178900, Dallas,TX,75206,2 ,2 ,1136,Condo,32.84684,-96.761427,POINT (-96.761427 32.84684),Upper Greenville
387,4800 Northway Dr APT 15A,220000, Dallas,TX,75206,2 ,2 ,991,Condo,32.846696,-96.768813,POINT (-96.76881299999999 32.846696),Upper Greenville
426,5609 Smu Blvd APT 301,349000, Dallas,TX,75206,2 ,2 ,1217,Condo,32.842009000000004,-96.772217,POINT (-96.772217 32.842009),Upper Greenville
439,5111 Skillman St #229,204900, Dallas,TX,75206,2 ,2 ,1057,Townhouse,32.848678,-96.761245,POINT (-96.761245 32.848678),Upper Greenville
504,5609 Smu Blvd APT 509,318000, Dallas,TX,75206,2 ,2 ,1025,Condo,32.842009000000004,-96.772217,POINT (-96.772217 32.842009),Upper Greenville
