{
    "type": "FeatureCollection",
    "features": [
   {
     "type": "Feature",
     "geometry": {
        "type": "Point",
        "coordinates":  [ -96.703775,32.811456 ]
     },
     "properties": {
     "FIELD1":0,
     "address":"2226 Pecan Grove Ct",
     "price":503900,
     "city":" Dallas",
     "state":"TX",
     "zipcode":75228,
     "beds":3,
     "baths":3,
     "size":2434,
     "type":"House",
     "name":"East Dallas"
     }
   },
   {
     "type": "Feature",
     "geometry": {
        "type": "Point",
        "coordinates":  [ -96.706613,32.849672999999996 ]
     },
     "properties": {
     "FIELD1":21,
     "address":"719 Parkhurst Dr",
     "price":399000,
     "city":" Dallas",
     "state":"TX",
     "zipcode":75218,
     "beds":3,
     "baths":2,
     "size":1446,
     "type":"House",
     "name":"East Dallas"
     }
   },
   {
     "type": "Feature",
     "geometry": {
        "type": "Point",
        "coordinates":  [ -96.680053,32.849374 ]
     },
     "properties": {
     "FIELD1":25,
     "address":"11318 Aledo Dr",
     "price":230000,
     "city":" Dallas",
     "state":"TX",
     "zipcode":75228,
     "beds":3,
     "baths":2,
     "size":1312,
     "type":"House",
     "name":"East Dallas"
     }
   },
   {
     "type": "Feature",
     "geometry": {
        "type": "Point",
        "coordinates":  [ -96.706345,32.806073 ]
     },
     "properties": {
     "FIELD1":31,
     "address":"2338 Pinebluff Dr",
     "price":425000,
     "city":" Dallas",
     "state":"TX",
     "zipcode":75228,
     "beds":3,
     "baths":3,
     "size":2138,
     "type":"House",
     "name":"East Dallas"
     }
   },
   {
     "type": "Feature",
     "geometry": {
        "type": "Point",
        "coordinates":  [ -96.65955699999999,32.828649 ]
     },
     "properties": {
     "FIELD1":74,
     "address":"3322 Crest Ridge Dr",
     "price":215000,
     "city":" Dallas",
     "state":"TX",
     "zipcode":75228,
     "beds":3,
     "baths":2,
     "size":1269,
     "type":"House",
     "name":"East Dallas"
     }
   },
   {
     "type": "Feature",
     "geometry": {
        "type": "Point",
        "coordinates":  [ -96.68340500000001,32.821782 ]
     },
     "properties": {
     "FIELD1":88,
     "address":"1819 Oates Dr",
     "price":390000,
     "city":" Dallas",
     "state":"TX",
     "zipcode":75228,
     "beds":3,
     "baths":2,
     "size":1332,
     "type":"House",
     "name":"East Dallas"
     }
   },
   {
     "type": "Feature",
     "geometry": {
        "type": "Point",
        "coordinates":  [ -96.66752199999999,32.849414 ]
     },
     "properties": {
     "FIELD1":89,
     "address":"2730 Tisinger Ave",
     "price":265000,
     "city":" Dallas",
     "state":"TX",
     "zipcode":75228,
     "beds":3,
     "baths":2,
     "size":1437,
     "type":"House",
     "name":"East Dallas"
     }
   },
   {
     "type": "Feature",
     "geometry": {
        "type": "Point",
        "coordinates":  [ -96.66299000000001,32.83752 ]
     },
     "properties": {
     "FIELD1":100,
     "address":"10714 Cotillion Dr",
     "price":239500,
     "city":" Dallas",
     "state":"TX",
     "zipcode":75228,
     "beds":4,
     "baths":2,
     "size":1342,
     "type":"House",
     "name":"East Dallas"
     }
   },
   {
     "type": "Feature",
     "geometry": {
        "type": "Point",
        "coordinates":  [ -96.693726,32.858484000000004 ]
     },
     "properties": {
     "FIELD1":110,
     "address":"11021 Ridgemeadow Dr",
     "price":509900,
     "city":" Dallas",
     "state":"TX",
     "zipcode":75218,
     "beds":3,
     "baths":2,
     "size":1904,
     "type":"House",
     "name":"East Dallas"
     }
   },
   {
     "type": "Feature",
     "geometry": {
        "type": "Point",
        "coordinates":  [ -96.709675,32.820336 ]
     },
     "properties": {
     "FIELD1":118,
     "address":"8626 Santa Clara Dr",
     "price":395000,
     "city":" Dallas",
     "state":"TX",
     "zipcode":75218,
     "beds":3,
     "baths":1,
     "size":1456,
     "type":"House",
     "name":"East Dallas"
     }
   },
   {
     "type": "Feature",
     "geometry": {
        "type": "Point",
        "coordinates":  [ -96.679133,32.849719 ]
     },
     "properties": {
     "FIELD1":122,
     "address":"1717 Tisinger Ave",
     "price":340000,
     "city":" Dallas",
     "state":"TX",
     "zipcode":75228,
     "beds":4,
     "baths":3,
     "size":1876,
     "type":"House",
     "name":"East Dallas"
     }
   },
   {
     "type": "Feature",
     "geometry": {
        "type": "Point",
        "coordinates":  [ -96.723837,32.810561 ]
     },
     "properties": {
     "FIELD1":140,
     "address":"1435 Waterside Dr",
     "price":750000,
     "city":" Dallas",
     "state":"TX",
     "zipcode":75218,
     "beds":4,
     "baths":4,
     "size":3017,
     "type":"House",
     "name":"East Dallas"
     }
   },
   {
     "type": "Feature",
     "geometry": {
        "type": "Point",
        "coordinates":  [ -96.701296,32.829492 ]
     },
     "properties": {
     "FIELD1":144,
     "address":"9337 Redondo Dr",
     "price":939000,
     "city":" Dallas",
     "state":"TX",
     "zipcode":75218,
     "beds":4,
     "baths":4,
     "size":4204,
     "type":"House",
     "name":"East Dallas"
     }
   },
   {
     "type": "Feature",
     "geometry": {
        "type": "Point",
        "coordinates":  [ -96.716008,32.807233000000004 ]
     },
     "properties": {
     "FIELD1":154,
     "address":"8116 Barbaree Blvd",
     "price":475000,
     "city":" Dallas",
     "state":"TX",
     "zipcode":75228,
     "beds":3,
     "baths":2,
     "size":1652,
     "type":"House",
     "name":"East Dallas"
     }
   },
   {
     "type": "Feature",
     "geometry": {
        "type": "Point",
        "coordinates":  [ -96.677513,32.832329 ]
     },
     "properties": {
     "FIELD1":158,
     "address":"10239 Casa View Dr",
     "price":275000,
     "city":" Dallas",
     "state":"TX",
     "zipcode":75228,
     "beds":3,
     "baths":2,
     "size":1310,
     "type":"House",
     "name":"East Dallas"
     }
   },
   {
     "type": "Feature",
     "geometry": {
        "type": "Point",
        "coordinates":  [ -96.686176,32.822153 ]
     },
     "properties": {
     "FIELD1":165,
     "address":"2545 Beechmont Dr",
     "price":360000,
     "city":" Dallas",
     "state":"TX",
     "zipcode":75228,
     "beds":4,
     "baths":3,
     "size":2128,
     "type":"House",
     "name":"East Dallas"
     }
   },
   {
     "type": "Feature",
     "geometry": {
        "type": "Point",
        "coordinates":  [ -96.661675,32.838079 ]
     },
     "properties": {
     "FIELD1":169,
     "address":"10750 Cotillion Dr",
     "price":259000,
     "city":" Dallas",
     "state":"TX",
     "zipcode":75228,
     "beds":3,
     "baths":3,
     "size":1739,
     "type":"House",
     "name":"East Dallas"
     }
   },
   {
     "type": "Feature",
     "geometry": {
        "type": "Point",
        "coordinates":  [ -96.70022900000001,32.816826 ]
     },
     "properties": {
     "FIELD1":178,
     "address":"8921 Vinewood Dr",
     "price":459900,
     "city":" Dallas",
     "state":"TX",
     "zipcode":75228,
     "beds":3,
     "baths":2,
     "size":1870,
     "type":"House",
     "name":"East Dallas"
     }
   },
   {
     "type": "Feature",
     "geometry": {
        "type": "Point",
        "coordinates":  [ -96.710288,32.845137 ]
     },
     "properties": {
     "FIELD1":201,
     "address":"9526 Tarleton St",
     "price":512500,
     "city":" Dallas",
     "state":"TX",
     "zipcode":75218,
     "beds":3,
     "baths":2,
     "size":2005,
     "type":"House",
     "name":"East Dallas"
     }
   },
   {
     "type": "Feature",
     "geometry": {
        "type": "Point",
        "coordinates":  [ -96.69673900000001,32.807967 ]
     },
     "properties": {
     "FIELD1":211,
     "address":"2624 Lakeland Dr",
     "price":290000,
     "city":" Dallas",
     "state":"TX",
     "zipcode":75228,
     "beds":4,
     "baths":2,
     "size":1700,
     "type":"House",
     "name":"East Dallas"
     }
   },
   {
     "type": "Feature",
     "geometry": {
        "type": "Point",
        "coordinates":  [ -96.691361,32.82036 ]
     },
     "properties": {
     "FIELD1":225,
     "address":"1407 Oates Dr",
     "price":409900,
     "city":" Dallas",
     "state":"TX",
     "zipcode":75228,
     "beds":3,
     "baths":3,
     "size":1693,
     "type":"House",
     "name":"East Dallas"
     }
   },
   {
     "type": "Feature",
     "geometry": {
        "type": "Point",
        "coordinates":  [ -96.68415999999999,32.814102 ]
     },
     "properties": {
     "FIELD1":238,
     "address":"1807 Wonderlight Ln",
     "price":335000,
     "city":" Dallas",
     "state":"TX",
     "zipcode":75228,
     "beds":3,
     "baths":3,
     "size":2552,
     "type":"House",
     "name":"East Dallas"
     }
   },
   {
     "type": "Feature",
     "geometry": {
        "type": "Point",
        "coordinates":  [ -96.721295,32.806833000000005 ]
     },
     "properties": {
     "FIELD1":243,
     "address":"7926 Glade Creek Ct",
     "price":565000,
     "city":" Dallas",
     "state":"TX",
     "zipcode":75218,
     "beds":3,
     "baths":2,
     "size":2359,
     "type":"House",
     "name":"East Dallas"
     }
   },
   {
     "type": "Feature",
     "geometry": {
        "type": "Point",
        "coordinates":  [ -96.679222,32.807978999999996 ]
     },
     "properties": {
     "FIELD1":256,
     "address":"8309 Capriola Ln",
     "price":150000,
     "city":" Dallas",
     "state":"TX",
     "zipcode":75228,
     "beds":3,
     "baths":2,
     "size":1646,
     "type":"House",
     "name":"East Dallas"
     }
   },
   {
     "type": "Feature",
     "geometry": {
        "type": "Point",
        "coordinates":  [ -96.68321800000001,32.825540000000004 ]
     },
     "properties": {
     "FIELD1":259,
     "address":"2216 Peavy Cir",
     "price":439900,
     "city":" Dallas",
     "state":"TX",
     "zipcode":75228,
     "beds":5,
     "baths":4,
     "size":2833,
     "type":"House",
     "name":"East Dallas"
     }
   },
   {
     "type": "Feature",
     "geometry": {
        "type": "Point",
        "coordinates":  [ -96.685703,32.854073 ]
     },
     "properties": {
     "FIELD1":260,
     "address":"11303 Flamingo Ln",
     "price":399000,
     "city":" Dallas",
     "state":"TX",
     "zipcode":75218,
     "beds":3,
     "baths":2,
     "size":1872,
     "type":"House",
     "name":"East Dallas"
     }
   },
   {
     "type": "Feature",
     "geometry": {
        "type": "Point",
        "coordinates":  [ -96.706528,32.827146 ]
     },
     "properties": {
     "FIELD1":267,
     "address":"9106 San Fernando Way",
     "price":387500,
     "city":" Dallas",
     "state":"TX",
     "zipcode":75218,
     "beds":2,
     "baths":1,
     "size":1731,
     "type":"House",
     "name":"East Dallas"
     }
   },
   {
     "type": "Feature",
     "geometry": {
        "type": "Point",
        "coordinates":  [ -96.69680600000001,32.83767 ]
     },
     "properties": {
     "FIELD1":276,
     "address":"1206 N Selva Dr",
     "price":295000,
     "city":" Dallas",
     "state":"TX",
     "zipcode":75218,
     "beds":2,
     "baths":2,
     "size":1320,
     "type":"House",
     "name":"East Dallas"
     }
   },
   {
     "type": "Feature",
     "geometry": {
        "type": "Point",
        "coordinates":  [ -96.708469,32.817997 ]
     },
     "properties": {
     "FIELD1":277,
     "address":"1706 Lakeland Dr",
     "price":362000,
     "city":" Dallas",
     "state":"TX",
     "zipcode":75218,
     "beds":2,
     "baths":1,
     "size":932,
     "type":"House",
     "name":"East Dallas"
     }
   },
   {
     "type": "Feature",
     "geometry": {
        "type": "Point",
        "coordinates":  [ -96.69107199999999,32.853426 ]
     },
     "properties": {
     "FIELD1":282,
     "address":"11621 Tuscany Way",
     "price":365000,
     "city":" Dallas",
     "state":"TX",
     "zipcode":75218,
     "beds":3,
     "baths":2,
     "size":1555,
     "type":"House",
     "name":"East Dallas"
     }
   },
   {
     "type": "Feature",
     "geometry": {
        "type": "Point",
        "coordinates":  [ -96.682956,32.845166 ]
     },
     "properties": {
     "FIELD1":286,
     "address":"10903 Aledo Dr",
     "price":200000,
     "city":" Dallas",
     "state":"TX",
     "zipcode":75228,
     "beds":3,
     "baths":1,
     "size":1200,
     "type":"House",
     "name":"East Dallas"
     }
   },
   {
     "type": "Feature",
     "geometry": {
        "type": "Point",
        "coordinates":  [ -96.6781,32.830599 ]
     },
     "properties": {
     "FIELD1":299,
     "address":"10129 Lingo Ln",
     "price":314900,
     "city":" Dallas",
     "state":"TX",
     "zipcode":75228,
     "beds":4,
     "baths":2,
     "size":1812,
     "type":"House",
     "name":"East Dallas"
     }
   },
   {
     "type": "Feature",
     "geometry": {
        "type": "Point",
        "coordinates":  [ -96.66014,32.845442999999996 ]
     },
     "properties": {
     "FIELD1":307,
     "address":"3516 Delford Cir",
     "price":385000,
     "city":" Dallas",
     "state":"TX",
     "zipcode":75228,
     "beds":5,
     "baths":3,
     "size":2626,
     "type":"House",
     "name":"East Dallas"
     }
   },
   {
     "type": "Feature",
     "geometry": {
        "type": "Point",
        "coordinates":  [ -96.715696,32.808791 ]
     },
     "properties": {
     "FIELD1":328,
     "address":"8171 San Cristobal Dr",
     "price":685000,
     "city":" Dallas",
     "state":"TX",
     "zipcode":75218,
     "beds":4,
     "baths":3,
     "size":2518,
     "type":"House",
     "name":"East Dallas"
     }
   },
   {
     "type": "Feature",
     "geometry": {
        "type": "Point",
        "coordinates":  [ -96.696009,32.807363 ]
     },
     "properties": {
     "FIELD1":351,
     "address":"2644 Lakeland Dr",
     "price":485000,
     "city":" Dallas",
     "state":"TX",
     "zipcode":75228,
     "beds":4,
     "baths":4,
     "size":2748,
     "type":"House",
     "name":"East Dallas"
     }
   },
   {
     "type": "Feature",
     "geometry": {
        "type": "Point",
        "coordinates":  [ -96.68765400000001,32.834184 ]
     },
     "properties": {
     "FIELD1":358,
     "address":"1871 Stevens Bluff Ln",
     "price":699900,
     "city":" Dallas",
     "state":"TX",
     "zipcode":75208,
     "beds":4,
     "baths":3,
     "size":2417,
     "type":"House",
     "name":"East Dallas"
     }
   },
   {
     "type": "Feature",
     "geometry": {
        "type": "Point",
        "coordinates":  [ -96.69823000000001,32.852304 ]
     },
     "properties": {
     "FIELD1":359,
     "address":"11622 Sasanqua Ln",
     "price":533000,
     "city":" Dallas",
     "state":"TX",
     "zipcode":75218,
     "beds":4,
     "baths":3,
     "size":2132,
     "type":"House",
     "name":"East Dallas"
     }
   },
   {
     "type": "Feature",
     "geometry": {
        "type": "Point",
        "coordinates":  [ -96.66154399999999,32.831299 ]
     },
     "properties": {
     "FIELD1":391,
     "address":"3216 San Lucas Ave",
     "price":220000,
     "city":" Dallas",
     "state":"TX",
     "zipcode":75228,
     "beds":3,
     "baths":2,
     "size":1392,
     "type":"House",
     "name":"East Dallas"
     }
   },
   {
     "type": "Feature",
     "geometry": {
        "type": "Point",
        "coordinates":  [ -96.702903,32.827999 ]
     },
     "properties": {
     "FIELD1":398,
     "address":"9303 Redondo Dr",
     "price":549000,
     "city":" Dallas",
     "state":"TX",
     "zipcode":75218,
     "beds":3,
     "baths":2,
     "size":2194,
     "type":"House",
     "name":"East Dallas"
     }
   },
   {
     "type": "Feature",
     "geometry": {
        "type": "Point",
        "coordinates":  [ -96.714402,32.807559000000005 ]
     },
     "properties": {
     "FIELD1":412,
     "address":"8158 Barbaree Blvd",
     "price":695000,
     "city":" Dallas",
     "state":"TX",
     "zipcode":75228,
     "beds":3,
     "baths":3,
     "size":2400,
     "type":"House",
     "name":"East Dallas"
     }
   },
   {
     "type": "Feature",
     "geometry": {
        "type": "Point",
        "coordinates":  [ -96.702157,32.80325 ]
     },
     "properties": {
     "FIELD1":415,
     "address":"2527 Pinebluff Dr",
     "price":424000,
     "city":" Dallas",
     "state":"TX",
     "zipcode":75228,
     "beds":4,
     "baths":3,
     "size":2954,
     "type":"House",
     "name":"East Dallas"
     }
   },
   {
     "type": "Feature",
     "geometry": {
        "type": "Point",
        "coordinates":  [ -96.71224000000001,32.795649 ]
     },
     "properties": {
     "FIELD1":416,
     "address":"7735 Claremont Dr",
     "price":259999,
     "city":" Dallas",
     "state":"TX",
     "zipcode":75228,
     "beds":3,
     "baths":2,
     "size":1384,
     "type":"House",
     "name":"East Dallas"
     }
   },
   {
     "type": "Feature",
     "geometry": {
        "type": "Point",
        "coordinates":  [ -96.69195500000001,32.852746999999994 ]
     },
     "properties": {
     "FIELD1":430,
     "address":"11619 Lochwood Blvd",
     "price":459900,
     "city":" Dallas",
     "state":"TX",
     "zipcode":75218,
     "beds":3,
     "baths":2,
     "size":1876,
     "type":"House",
     "name":"East Dallas"
     }
   },
   {
     "type": "Feature",
     "geometry": {
        "type": "Point",
        "coordinates":  [ -96.668224,32.83939 ]
     },
     "properties": {
     "FIELD1":463,
     "address":"10518 Ferguson Rd",
     "price":170000,
     "city":" Dallas",
     "state":"TX",
     "zipcode":75228,
     "beds":3,
     "baths":1,
     "size":1125,
     "type":"House",
     "name":"East Dallas"
     }
   },
   {
     "type": "Feature",
     "geometry": {
        "type": "Point",
        "coordinates":  [ -96.673028,32.844499 ]
     },
     "properties": {
     "FIELD1":507,
     "address":"10815 Joaquin Dr",
     "price":189900,
     "city":" Dallas",
     "state":"TX",
     "zipcode":75228,
     "beds":2,
     "baths":1,
     "size":1140,
     "type":"House",
     "name":"East Dallas"
     }
   },
   {
     "type": "Feature",
     "geometry": {
        "type": "Point",
        "coordinates":  [ -96.663524,32.832164 ]
     },
     "properties": {
     "FIELD1":516,
     "address":"3104 San Paula Ave",
     "price":299000,
     "city":" Dallas",
     "state":"TX",
     "zipcode":75228,
     "beds":3,
     "baths":2,
     "size":1210,
     "type":"House",
     "name":"East Dallas"
     }
   },
   {
     "type": "Feature",
     "geometry": {
        "type": "Point",
        "coordinates":  [ -96.673647,32.816006 ]
     },
     "properties": {
     "FIELD1":545,
     "address":"2435 Hillsboro Ave",
     "price":349900,
     "city":" Dallas",
     "state":"TX",
     "zipcode":75228,
     "beds":3,
     "baths":2,
     "size":1687,
     "type":"House",
     "name":"East Dallas"
     }
   },
   {
     "type": "Feature",
     "geometry": {
        "type": "Point",
        "coordinates":  [ -96.689327,32.858876 ]
     },
     "properties": {
     "FIELD1":559,
     "address":"11916 Loch Ness Dr",
     "price":549500,
     "city":" Dallas",
     "state":"TX",
     "zipcode":75218,
     "beds":4,
     "baths":3,
     "size":3992,
     "type":"House",
     "name":"East Dallas"
     }
   },
   {
     "type": "Feature",
     "geometry": {
        "type": "Point",
        "coordinates":  [ -96.663111,32.826 ]
     },
     "properties": {
     "FIELD1":561,
     "address":"3011 Hillglenn Rd",
     "price":255000,
     "city":" Dallas",
     "state":"TX",
     "zipcode":75228,
     "beds":4,
     "baths":2,
     "size":1688,
     "type":"House",
     "name":"East Dallas"
     }
   },
   {
     "type": "Feature",
     "geometry": {
        "type": "Point",
        "coordinates":  [ -96.67231600000001,32.829582 ]
     },
     "properties": {
     "FIELD1":579,
     "address":"10037 Casa Oaks Dr",
     "price":254900,
     "city":" Dallas",
     "state":"TX",
     "zipcode":75228,
     "beds":4,
     "baths":2,
     "size":1220,
     "type":"House",
     "name":"East Dallas"
     }
   },
   {
     "type": "Feature",
     "geometry": {
        "type": "Point",
        "coordinates":  [ -96.683741,32.824031 ]
     },
     "properties": {
     "FIELD1":593,
     "address":"2360 Peavy Pl",
     "price":389000,
     "city":" Dallas",
     "state":"TX",
     "zipcode":75228,
     "beds":3,
     "baths":3,
     "size":1535,
     "type":"House",
     "name":"East Dallas"
     }
   },
   {
     "type": "Feature",
     "geometry": {
        "type": "Point",
        "coordinates":  [ -96.698471,32.833362 ]
     },
     "properties": {
     "FIELD1":594,
     "address":"9607 Losa Dr",
     "price":645000,
     "city":" Dallas",
     "state":"TX",
     "zipcode":75218,
     "beds":2,
     "baths":2,
     "size":2646,
     "type":"House",
     "name":"East Dallas"
     }
   },
   {
     "type": "Feature",
     "geometry": {
        "type": "Point",
        "coordinates":  [ -96.69349799999999,32.848143 ]
     },
     "properties": {
     "FIELD1":613,
     "address":"10517 Maplegrove Ln",
     "price":409000,
     "city":" Dallas",
     "state":"TX",
     "zipcode":75218,
     "beds":3,
     "baths":2,
     "size":1368,
     "type":"House",
     "name":"East Dallas"
     }
   },
   {
     "type": "Feature",
     "geometry": {
        "type": "Point",
        "coordinates":  [ -96.685872,32.83355 ]
     },
     "properties": {
     "FIELD1":648,
     "address":"10226 Pinecrest Dr",
     "price":249000,
     "city":" Dallas",
     "state":"TX",
     "zipcode":75228,
     "beds":2,
     "baths":1,
     "size":988,
     "type":"House",
     "name":"East Dallas"
     }
   },
   {
     "type": "Feature",
     "geometry": {
        "type": "Point",
        "coordinates":  [ -96.65606600000001,32.744223999999996 ]
     },
     "properties": {
     "FIELD1":1,
     "address":"9615 Limestone Dr",
     "price":145000,
     "city":" Dallas",
     "state":"TX",
     "zipcode":75217,
     "beds":3,
     "baths":2,
     "size":1057,
     "type":"House",
     "name":"Southeast Dallas"
     }
   },
   {
     "type": "Feature",
     "geometry": {
        "type": "Point",
        "coordinates":  [ -96.65570100000001,32.706745 ]
     },
     "properties": {
     "FIELD1":3,
     "address":"351 Crenshaw Dr",
     "price":199000,
     "city":" Dallas",
     "state":"TX",
     "zipcode":75217,
     "beds":4,
     "baths":2,
     "size":1360,
     "type":"House",
     "name":"Southeast Dallas"
     }
   },
   {
     "type": "Feature",
     "geometry": {
        "type": "Point",
        "coordinates":  [ -96.757222,32.743627000000004 ]
     },
     "properties": {
     "FIELD1":4,
     "address":"2212 Lowery St",
     "price":265000,
     "city":" Dallas",
     "state":"TX",
     "zipcode":75215,
     "beds":3,
     "baths":2,
     "size":1366,
     "type":"House",
     "name":"Southeast Dallas"
     }
   },
   {
     "type": "Feature",
     "geometry": {
        "type": "Point",
        "coordinates":  [ -96.69636899999999,32.785948 ]
     },
     "properties": {
     "FIELD1":17,
     "address":"4451 Cinnabar Dr",
     "price":334900,
     "city":" Dallas",
     "state":"TX",
     "zipcode":75227,
     "beds":3,
     "baths":3,
     "size":2228,
     "type":"House",
     "name":"Southeast Dallas"
     }
   },
   {
     "type": "Feature",
     "geometry": {
        "type": "Point",
        "coordinates":  [ -96.678136,32.760811 ]
     },
     "properties": {
     "FIELD1":29,
     "address":"2847 Pleasant Dr",
     "price":179000,
     "city":" Dallas",
     "state":"TX",
     "zipcode":75227,
     "beds":3,
     "baths":2,
     "size":940,
     "type":"House",
     "name":"Southeast Dallas"
     }
   },
   {
     "type": "Feature",
     "geometry": {
        "type": "Point",
        "coordinates":  [ -96.58527099999999,32.676323 ]
     },
     "properties": {
     "FIELD1":38,
     "address":"14261 Bridgeview Ln",
     "price":215000,
     "city":" Dallas",
     "state":"TX",
     "zipcode":75253,
     "beds":3,
     "baths":2,
     "size":1568,
     "type":"House",
     "name":"Southeast Dallas"
     }
   },
   {
     "type": "Feature",
     "geometry": {
        "type": "Point",
        "coordinates":  [ -96.682705,32.693929 ]
     },
     "properties": {
     "FIELD1":39,
     "address":"8102 Suetelle Dr",
     "price":200000,
     "city":" Dallas",
     "state":"TX",
     "zipcode":75217,
     "beds":3,
     "baths":2,
     "size":1400,
     "type":"House",
     "name":"Southeast Dallas"
     }
   },
   {
     "type": "Feature",
     "geometry": {
        "type": "Point",
        "coordinates":  [ -96.68451,32.746988 ]
     },
     "properties": {
     "FIELD1":46,
     "address":"2016 Shortal St",
     "price":175000,
     "city":" Dallas",
     "state":"TX",
     "zipcode":75217,
     "beds":3,
     "baths":1,
     "size":1153,
     "type":"House",
     "name":"Southeast Dallas"
     }
   },
   {
     "type": "Feature",
     "geometry": {
        "type": "Point",
        "coordinates":  [ -96.58750500000001,32.676935 ]
     },
     "properties": {
     "FIELD1":54,
     "address":"14157 Greenhaw Ln",
     "price":249900,
     "city":" Dallas",
     "state":"TX",
     "zipcode":75253,
     "beds":3,
     "baths":3,
     "size":1946,
     "type":"House",
     "name":"Southeast Dallas"
     }
   },
   {
     "type": "Feature",
     "geometry": {
        "type": "Point",
        "coordinates":  [ -96.701709,32.718579999999996 ]
     },
     "properties": {
     "FIELD1":57,
     "address":"429 Bissonet Ave",
     "price":195000,
     "city":" Dallas",
     "state":"TX",
     "zipcode":75217,
     "beds":3,
     "baths":2,
     "size":1180,
     "type":"House",
     "name":"Southeast Dallas"
     }
   },
   {
     "type": "Feature",
     "geometry": {
        "type": "Point",
        "coordinates":  [ -96.659899,32.764488 ]
     },
     "properties": {
     "FIELD1":60,
     "address":"9420 Kerrville St",
     "price":149000,
     "city":" Dallas",
     "state":"TX",
     "zipcode":75227,
     "beds":2,
     "baths":2,
     "size":1054,
     "type":"House",
     "name":"Southeast Dallas"
     }
   },
   {
     "type": "Feature",
     "geometry": {
        "type": "Point",
        "coordinates":  [ -96.68604300000001,32.783101 ]
     },
     "properties": {
     "FIELD1":61,
     "address":"8003 Rothington Rd APT 41-47",
     "price":485000,
     "city":" Dallas",
     "state":"TX",
     "zipcode":75227,
     "beds":8,
     "baths":12,
     "size":4960,
     "type":"Multi-family",
     "name":"Southeast Dallas"
     }
   },
   {
     "type": "Feature",
     "geometry": {
        "type": "Point",
        "coordinates":  [ -96.722048,32.770891 ]
     },
     "properties": {
     "FIELD1":99,
     "address":"5812 Wofford Ave",
     "price":185000,
     "city":" Dallas",
     "state":"TX",
     "zipcode":75227,
     "beds":3,
     "baths":2,
     "size":1458,
     "type":"House",
     "name":"Southeast Dallas"
     }
   },
   {
     "type": "Feature",
     "geometry": {
        "type": "Point",
        "coordinates":  [ -96.66350600000001,32.698504 ]
     },
     "properties": {
     "FIELD1":123,
     "address":"834 Oslo Ln",
     "price":220000,
     "city":" Dallas",
     "state":"TX",
     "zipcode":75217,
     "beds":3,
     "baths":2,
     "size":1380,
     "type":"House",
     "name":"Southeast Dallas"
     }
   },
   {
     "type": "Feature",
     "geometry": {
        "type": "Point",
        "coordinates":  [ -96.71243,32.786988 ]
     },
     "properties": {
     "FIELD1":149,
     "address":"7210 Hunnicut Rd",
     "price":349900,
     "city":" Dallas",
     "state":"TX",
     "zipcode":75227,
     "beds":3,
     "baths":3,
     "size":2143,
     "type":"House",
     "name":"Southeast Dallas"
     }
   },
   {
     "type": "Feature",
     "geometry": {
        "type": "Point",
        "coordinates":  [ -96.657264,32.655864 ]
     },
     "properties": {
     "FIELD1":204,
     "address":"3622 Middlefield Rd",
     "price":139000,
     "city":" Dallas",
     "state":"TX",
     "zipcode":75253,
     "beds":3,
     "baths":2,
     "size":1450,
     "type":"House",
     "name":"Southeast Dallas"
     }
   },
   {
     "type": "Feature",
     "geometry": {
        "type": "Point",
        "coordinates":  [ -96.704526,32.789664 ]
     },
     "properties": {
     "FIELD1":209,
     "address":"5611 Meadowick Ln",
     "price":289000,
     "city":" Dallas",
     "state":"TX",
     "zipcode":75227,
     "beds":2,
     "baths":2,
     "size":1400,
     "type":"House",
     "name":"Southeast Dallas"
     }
   },
   {
     "type": "Feature",
     "geometry": {
        "type": "Point",
        "coordinates":  [ -96.665941,32.730164 ]
     },
     "properties": {
     "FIELD1":220,
     "address":"8918 Slay St",
     "price":187500,
     "city":" Dallas",
     "state":"TX",
     "zipcode":75217,
     "beds":3,
     "baths":2,
     "size":1584,
     "type":"House",
     "name":"Southeast Dallas"
     }
   },
   {
     "type": "Feature",
     "geometry": {
        "type": "Point",
        "coordinates":  [ -96.65446899999999,32.708092 ]
     },
     "properties": {
     "FIELD1":266,
     "address":"317 Campus Dr",
     "price":229000,
     "city":" Dallas",
     "state":"TX",
     "zipcode":75217,
     "beds":3,
     "baths":1,
     "size":975,
     "type":"House",
     "name":"Southeast Dallas"
     }
   },
   {
     "type": "Feature",
     "geometry": {
        "type": "Point",
        "coordinates":  [ -96.66879499999999,32.741972 ]
     },
     "properties": {
     "FIELD1":281,
     "address":"1717 Greendale Dr",
     "price":200000,
     "city":" Dallas",
     "state":"TX",
     "zipcode":75217,
     "beds":3,
     "baths":2,
     "size":1713,
     "type":"House",
     "name":"Southeast Dallas"
     }
   },
   {
     "type": "Feature",
     "geometry": {
        "type": "Point",
        "coordinates":  [ -96.65071999999999,32.765448 ]
     },
     "properties": {
     "FIELD1":312,
     "address":"9924 Crystal Valley Way",
     "price":240000,
     "city":" Dallas",
     "state":"TX",
     "zipcode":75227,
     "beds":4,
     "baths":3,
     "size":1728,
     "type":"House",
     "name":"Southeast Dallas"
     }
   },
   {
     "type": "Feature",
     "geometry": {
        "type": "Point",
        "coordinates":  [ -96.680729,32.741440000000004 ]
     },
     "properties": {
     "FIELD1":378,
     "address":"8203 Stonehurst St",
     "price":127000,
     "city":" Dallas",
     "state":"TX",
     "zipcode":75217,
     "beds":2,
     "baths":1,
     "size":732,
     "type":"House",
     "name":"Southeast Dallas"
     }
   },
   {
     "type": "Feature",
     "geometry": {
        "type": "Point",
        "coordinates":  [ -96.756404,32.742484000000005 ]
     },
     "properties": {
     "FIELD1":402,
     "address":"2226 Dyson St",
     "price":265999,
     "city":" Dallas",
     "state":"TX",
     "zipcode":75215,
     "beds":3,
     "baths":3,
     "size":1898,
     "type":"House",
     "name":"Southeast Dallas"
     }
   },
   {
     "type": "Feature",
     "geometry": {
        "type": "Point",
        "coordinates":  [ -96.657593,32.732634999999995 ]
     },
     "properties": {
     "FIELD1":453,
     "address":"9516 Macomba Ct",
     "price":229950,
     "city":" Dallas",
     "state":"TX",
     "zipcode":75217,
     "beds":4,
     "baths":3,
     "size":1920,
     "type":"House",
     "name":"Southeast Dallas"
     }
   },
   {
     "type": "Feature",
     "geometry": {
        "type": "Point",
        "coordinates":  [ -96.716599,32.721722 ]
     },
     "properties": {
     "FIELD1":481,
     "address":"551 Neomi Ave",
     "price":239900,
     "city":" Dallas",
     "state":"TX",
     "zipcode":75217,
     "beds":4,
     "baths":2,
     "size":1599,
     "type":"House",
     "name":"Southeast Dallas"
     }
   },
   {
     "type": "Feature",
     "geometry": {
        "type": "Point",
        "coordinates":  [ -96.574341,32.688038 ]
     },
     "properties": {
     "FIELD1":526,
     "address":"508 Youngstown St #25",
     "price":165000,
     "city":" Dallas",
     "state":"TX",
     "zipcode":75253,
     "beds":3,
     "baths":2,
     "size":1500,
     "type":"House",
     "name":"Southeast Dallas"
     }
   },
   {
     "type": "Feature",
     "geometry": {
        "type": "Point",
        "coordinates":  [ -96.687587,32.752196000000005 ]
     },
     "properties": {
     "FIELD1":533,
     "address":"2243 Major Dr",
     "price":155000,
     "city":" Dallas",
     "state":"TX",
     "zipcode":75227,
     "beds":3,
     "baths":2,
     "size":1457,
     "type":"House",
     "name":"Southeast Dallas"
     }
   },
   {
     "type": "Feature",
     "geometry": {
        "type": "Point",
        "coordinates":  [ -96.653791,32.746069 ]
     },
     "properties": {
     "FIELD1":537,
     "address":"1561 Cosette Dr",
     "price":549900,
     "city":" Dallas",
     "state":"TX",
     "zipcode":75215,
     "beds":2,
     "baths":3,
     "size":2083,
     "type":"House",
     "name":"Southeast Dallas"
     }
   },
   {
     "type": "Feature",
     "geometry": {
        "type": "Point",
        "coordinates":  [ -96.695177,32.781602 ]
     },
     "properties": {
     "FIELD1":543,
     "address":"4910 Urban Ave",
     "price":289000,
     "city":" Dallas",
     "state":"TX",
     "zipcode":75227,
     "beds":4,
     "baths":3,
     "size":1841,
     "type":"House",
     "name":"Southeast Dallas"
     }
   },
   {
     "type": "Feature",
     "geometry": {
        "type": "Point",
        "coordinates":  [ -96.691564,32.711402 ]
     },
     "properties": {
     "FIELD1":558,
     "address":"7531 Olusta Dr #2",
     "price":299900,
     "city":" Dallas",
     "state":"TX",
     "zipcode":75217,
     "beds":2,
     "baths":2,
     "size":2089,
     "type":"Multi-family",
     "name":"Southeast Dallas"
     }
   },
   {
     "type": "Feature",
     "geometry": {
        "type": "Point",
        "coordinates":  [ -96.73605699999999,32.781889 ]
     },
     "properties": {
     "FIELD1":575,
     "address":"3433 Detonte St",
     "price":109000,
     "city":" Dallas",
     "state":"TX",
     "zipcode":75223,
     "beds":2,
     "baths":2,
     "size":868,
     "type":"Multi-family",
     "name":"Southeast Dallas"
     }
   },
   {
     "type": "Feature",
     "geometry": {
        "type": "Point",
        "coordinates":  [ -96.618003,32.679471 ]
     },
     "properties": {
     "FIELD1":584,
     "address":"2183 Jordan Valley Rd",
     "price":124900,
     "city":" Dallas",
     "state":"TX",
     "zipcode":75253,
     "beds":2,
     "baths":1,
     "size":896,
     "type":"House",
     "name":"Southeast Dallas"
     }
   },
   {
     "type": "Feature",
     "geometry": {
        "type": "Point",
        "coordinates":  [ -96.70329,32.78208 ]
     },
     "properties": {
     "FIELD1":588,
     "address":"5747 Russcrest Dr",
     "price":249900,
     "city":" Dallas",
     "state":"TX",
     "zipcode":75227,
     "beds":2,
     "baths":2,
     "size":1463,
     "type":"House",
     "name":"Southeast Dallas"
     }
   },
   {
     "type": "Feature",
     "geometry": {
        "type": "Point",
        "coordinates":  [ -96.756956,32.742019 ]
     },
     "properties": {
     "FIELD1":603,
     "address":"2222 Dyson St",
     "price":265999,
     "city":" Dallas",
     "state":"TX",
     "zipcode":75215,
     "beds":3,
     "baths":3,
     "size":1898,
     "type":"House",
     "name":"Southeast Dallas"
     }
   },
   {
     "type": "Feature",
     "geometry": {
        "type": "Point",
        "coordinates":  [ -96.698008,32.759792 ]
     },
     "properties": {
     "FIELD1":640,
     "address":"7224 Piedmont Dr",
     "price":279000,
     "city":" Dallas",
     "state":"TX",
     "zipcode":75227,
     "beds":3,
     "baths":2,
     "size":1548,
     "type":"House",
     "name":"Southeast Dallas"
     }
   },
   {
     "type": "Feature",
     "geometry": {
        "type": "Point",
        "coordinates":  [ -96.706523,32.777033 ]
     },
     "properties": {
     "FIELD1":641,
     "address":"6419 Lovett Ave",
     "price":165000,
     "city":" Dallas",
     "state":"TX",
     "zipcode":75227,
     "beds":3,
     "baths":2,
     "size":1360,
     "type":"House",
     "name":"Southeast Dallas"
     }
   },
   {
     "type": "Feature",
     "geometry": {
        "type": "Point",
        "coordinates":  [ -96.763974,32.764402000000004 ]
     },
     "properties": {
     "FIELD1":2,
     "address":"2714 Burger Ave",
     "price":155000,
     "city":" Dallas",
     "state":"TX",
     "zipcode":75215,
     "beds":3,
     "baths":2,
     "size":912,
     "type":"House",
     "name":"Fair Park"
     }
   },
   {
     "type": "Feature",
     "geometry": {
        "type": "Point",
        "coordinates":  [ -96.75239499999999,32.757605 ]
     },
     "properties": {
     "FIELD1":48,
     "address":"2839 Southland St",
     "price":173900,
     "city":" Dallas",
     "state":"TX",
     "zipcode":75215,
     "beds":3,
     "baths":2,
     "size":1398,
     "type":"House",
     "name":"Fair Park"
     }
   },
   {
     "type": "Feature",
     "geometry": {
        "type": "Point",
        "coordinates":  [ -96.770409,32.76484 ]
     },
     "properties": {
     "FIELD1":78,
     "address":"3112 Latimer St",
     "price":497600,
     "city":" Dallas",
     "state":"TX",
     "zipcode":75215,
     "beds":4,
     "baths":4,
     "size":2592,
     "type":"House",
     "name":"Fair Park"
     }
   },
   {
     "type": "Feature",
     "geometry": {
        "type": "Point",
        "coordinates":  [ -96.744116,32.768619 ]
     },
     "properties": {
     "FIELD1":152,
     "address":"4102 Carpenter Ave",
     "price":145000,
     "city":" Dallas",
     "state":"TX",
     "zipcode":75210,
     "beds":4,
     "baths":1,
     "size":1314,
     "type":"House",
     "name":"Fair Park"
     }
   },
   {
     "type": "Feature",
     "geometry": {
        "type": "Point",
        "coordinates":  [ -96.74363000000001,32.772154 ]
     },
     "properties": {
     "FIELD1":166,
     "address":"2910 Gay St",
     "price":262000,
     "city":" Dallas",
     "state":"TX",
     "zipcode":75210,
     "beds":4,
     "baths":4,
     "size":2121,
     "type":"House",
     "name":"Fair Park"
     }
   },
   {
     "type": "Feature",
     "geometry": {
        "type": "Point",
        "coordinates":  [ -96.743883,32.771161 ]
     },
     "properties": {
     "FIELD1":195,
     "address":"4228 Copeland St",
     "price":94000,
     "city":" Dallas",
     "state":"TX",
     "zipcode":75210,
     "beds":2,
     "baths":2,
     "size":936,
     "type":"Multi-family",
     "name":"Fair Park"
     }
   },
   {
     "type": "Feature",
     "geometry": {
        "type": "Point",
        "coordinates":  [ -96.75739499999999,32.75501 ]
     },
     "properties": {
     "FIELD1":219,
     "address":"2606 Marburg St",
     "price":150000,
     "city":" Dallas",
     "state":"TX",
     "zipcode":75215,
     "beds":5,
     "baths":2,
     "size":1794,
     "type":"Multi-family",
     "name":"Fair Park"
     }
   },
   {
     "type": "Feature",
     "geometry": {
        "type": "Point",
        "coordinates":  [ -96.746705,32.774335 ]
     },
     "properties": {
     "FIELD1":237,
     "address":"4307 Frank St",
     "price":149000,
     "city":" Dallas",
     "state":"TX",
     "zipcode":75210,
     "beds":4,
     "baths":2,
     "size":1380,
     "type":"Multi-family",
     "name":"Fair Park"
     }
   },
   {
     "type": "Feature",
     "geometry": {
        "type": "Point",
        "coordinates":  [ -96.76325200000001,32.749522999999996 ]
     },
     "properties": {
     "FIELD1":327,
     "address":"4523 Colonial Ave",
     "price":260000,
     "city":" Dallas",
     "state":"TX",
     "zipcode":75215,
     "beds":3,
     "baths":3,
     "size":2079,
     "type":"House",
     "name":"Fair Park"
     }
   },
   {
     "type": "Feature",
     "geometry": {
        "type": "Point",
        "coordinates":  [ -96.754806,32.760498999999996 ]
     },
     "properties": {
     "FIELD1":336,
     "address":"2918 Reed Ln",
     "price":118000,
     "city":" Dallas",
     "state":"TX",
     "zipcode":75215,
     "beds":3,
     "baths":2,
     "size":996,
     "type":"House",
     "name":"Fair Park"
     }
   },
   {
     "type": "Feature",
     "geometry": {
        "type": "Point",
        "coordinates":  [ -96.76959000000001,32.766463 ]
     },
     "properties": {
     "FIELD1":496,
     "address":"2607 Peabody Ave",
     "price":170000,
     "city":" Dallas",
     "state":"TX",
     "zipcode":75215,
     "beds":3,
     "baths":2,
     "size":1358,
     "type":"House",
     "name":"Fair Park"
     }
   },
   {
     "type": "Feature",
     "geometry": {
        "type": "Point",
        "coordinates":  [ -96.765313,32.74897 ]
     },
     "properties": {
     "FIELD1":551,
     "address":"1607 Marburg St",
     "price":150000,
     "city":" Dallas",
     "state":"TX",
     "zipcode":75215,
     "beds":5,
     "baths":2,
     "size":2106,
     "type":"Multi-family",
     "name":"Fair Park"
     }
   },
   {
     "type": "Feature",
     "geometry": {
        "type": "Point",
        "coordinates":  [ -96.84067900000001,32.682663 ]
     },
     "properties": {
     "FIELD1":5,
     "address":"5116 Jade Dr",
     "price":160000,
     "city":" Dallas",
     "state":"TX",
     "zipcode":75232,
     "beds":3,
     "baths":2,
     "size":1742,
     "type":"House",
     "name":"South Oak Cliff"
     }
   },
   {
     "type": "Feature",
     "geometry": {
        "type": "Point",
        "coordinates":  [ -96.815823,32.71418 ]
     },
     "properties": {
     "FIELD1":6,
     "address":"2723 Alaska Ave",
     "price":220000,
     "city":" Dallas",
     "state":"TX",
     "zipcode":75216,
     "beds":3,
     "baths":2,
     "size":1444,
     "type":"House",
     "name":"South Oak Cliff"
     }
   },
   {
     "type": "Feature",
     "geometry": {
        "type": "Point",
        "coordinates":  [ -96.866506,32.654181 ]
     },
     "properties": {
     "FIELD1":26,
     "address":"2845 Gospel Dr",
     "price":215000,
     "city":" Dallas",
     "state":"TX",
     "zipcode":75237,
     "beds":4,
     "baths":2,
     "size":1897,
     "type":"House",
     "name":"South Oak Cliff"
     }
   },
   {
     "type": "Feature",
     "geometry": {
        "type": "Point",
        "coordinates":  [ -96.877143,32.695432000000004 ]
     },
     "properties": {
     "FIELD1":52,
     "address":"3427 Old Colony Rd",
     "price":274900,
     "city":" Dallas",
     "state":"TX",
     "zipcode":75233,
     "beds":3,
     "baths":2,
     "size":1542,
     "type":"House",
     "name":"South Oak Cliff"
     }
   },
   {
     "type": "Feature",
     "geometry": {
        "type": "Point",
        "coordinates":  [ -96.88078900000001,32.705025 ]
     },
     "properties": {
     "FIELD1":64,
     "address":"3215 Kiesthill Dr",
     "price":395000,
     "city":" Dallas",
     "state":"TX",
     "zipcode":75233,
     "beds":5,
     "baths":3,
     "size":3312,
     "type":"House",
     "name":"South Oak Cliff"
     }
   },
   {
     "type": "Feature",
     "geometry": {
        "type": "Point",
        "coordinates":  [ -96.882276,32.669768 ]
     },
     "properties": {
     "FIELD1":77,
     "address":"3912 Wanklyn Ct",
     "price":165000,
     "city":" Dallas",
     "state":"TX",
     "zipcode":75237,
     "beds":2,
     "baths":2,
     "size":1153,
     "type":"House",
     "name":"South Oak Cliff"
     }
   },
   {
     "type": "Feature",
     "geometry": {
        "type": "Point",
        "coordinates":  [ -96.856501,32.69999 ]
     },
     "properties": {
     "FIELD1":80,
     "address":"2366 Southwood Dr",
     "price":295000,
     "city":" Dallas",
     "state":"TX",
     "zipcode":75224,
     "beds":3,
     "baths":2,
     "size":1746,
     "type":"House",
     "name":"South Oak Cliff"
     }
   },
   {
     "type": "Feature",
     "geometry": {
        "type": "Point",
        "coordinates":  [ -96.83417299999999,32.696039 ]
     },
     "properties": {
     "FIELD1":95,
     "address":"3905 Morning Dew Trl",
     "price":239500,
     "city":" Dallas",
     "state":"TX",
     "zipcode":75224,
     "beds":3,
     "baths":2,
     "size":1402,
     "type":"House",
     "name":"South Oak Cliff"
     }
   },
   {
     "type": "Feature",
     "geometry": {
        "type": "Point",
        "coordinates":  [ -96.863155,32.667228 ]
     },
     "properties": {
     "FIELD1":101,
     "address":"2556 Matland Dr",
     "price":239000,
     "city":" Dallas",
     "state":"TX",
     "zipcode":75237,
     "beds":3,
     "baths":2,
     "size":1774,
     "type":"House",
     "name":"South Oak Cliff"
     }
   },
   {
     "type": "Feature",
     "geometry": {
        "type": "Point",
        "coordinates":  [ -96.885926,32.693914 ]
     },
     "properties": {
     "FIELD1":161,
     "address":"4024 Oak Arbor Dr",
     "price":269900,
     "city":" Dallas",
     "state":"TX",
     "zipcode":75233,
     "beds":3,
     "baths":2,
     "size":1649,
     "type":"House",
     "name":"South Oak Cliff"
     }
   },
   {
     "type": "Feature",
     "geometry": {
        "type": "Point",
        "coordinates":  [ -96.819452,32.696236999999996 ]
     },
     "properties": {
     "FIELD1":179,
     "address":"319 Fordham Rd",
     "price":259900,
     "city":" Dallas",
     "state":"TX",
     "zipcode":75216,
     "beds":4,
     "baths":2,
     "size":1686,
     "type":"House",
     "name":"South Oak Cliff"
     }
   },
   {
     "type": "Feature",
     "geometry": {
        "type": "Point",
        "coordinates":  [ -96.81824,32.706972 ]
     },
     "properties": {
     "FIELD1":193,
     "address":"3115 Arizona Ave",
     "price":169000,
     "city":" Dallas",
     "state":"TX",
     "zipcode":75216,
     "beds":3,
     "baths":2,
     "size":916,
     "type":"House",
     "name":"South Oak Cliff"
     }
   },
   {
     "type": "Feature",
     "geometry": {
        "type": "Point",
        "coordinates":  [ -96.818143,32.678552 ]
     },
     "properties": {
     "FIELD1":241,
     "address":"5640 Trailwood Dr",
     "price":198000,
     "city":" Dallas",
     "state":"TX",
     "zipcode":75241,
     "beds":3,
     "baths":2,
     "size":2021,
     "type":"House",
     "name":"South Oak Cliff"
     }
   },
   {
     "type": "Feature",
     "geometry": {
        "type": "Point",
        "coordinates":  [ -96.84074,32.720215 ]
     },
     "properties": {
     "FIELD1":271,
     "address":"2526 Jim Loftin Rd",
     "price":300000,
     "city":" Dallas",
     "state":"TX",
     "zipcode":75224,
     "beds":4,
     "baths":3,
     "size":1496,
     "type":"House",
     "name":"South Oak Cliff"
     }
   },
   {
     "type": "Feature",
     "geometry": {
        "type": "Point",
        "coordinates":  [ -96.842481,32.670829 ]
     },
     "properties": {
     "FIELD1":288,
     "address":"1347 Acapulco Dr",
     "price":525000,
     "city":" Dallas",
     "state":"TX",
     "zipcode":75232,
     "beds":4,
     "baths":4,
     "size":3470,
     "type":"House",
     "name":"South Oak Cliff"
     }
   },
   {
     "type": "Feature",
     "geometry": {
        "type": "Point",
        "coordinates":  [ -96.838476,32.675303 ]
     },
     "properties": {
     "FIELD1":295,
     "address":"928 Stillmeadow Rd",
     "price":390000,
     "city":" Dallas",
     "state":"TX",
     "zipcode":75232,
     "beds":4,
     "baths":4,
     "size":2448,
     "type":"House",
     "name":"South Oak Cliff"
     }
   },
   {
     "type": "Feature",
     "geometry": {
        "type": "Point",
        "coordinates":  [ -96.834731,32.68815 ]
     },
     "properties": {
     "FIELD1":313,
     "address":"735 Oak Park Dr",
     "price":249000,
     "city":" Dallas",
     "state":"TX",
     "zipcode":75232,
     "beds":3,
     "baths":2,
     "size":1410,
     "type":"House",
     "name":"South Oak Cliff"
     }
   },
   {
     "type": "Feature",
     "geometry": {
        "type": "Point",
        "coordinates":  [ -96.83348199999999,32.655559000000004 ]
     },
     "properties": {
     "FIELD1":334,
     "address":"742 Ivywood Dr",
     "price":224879,
     "city":" Dallas",
     "state":"TX",
     "zipcode":75232,
     "beds":3,
     "baths":2,
     "size":1391,
     "type":"House",
     "name":"South Oak Cliff"
     }
   },
   {
     "type": "Feature",
     "geometry": {
        "type": "Point",
        "coordinates":  [ -96.839366,32.654655 ]
     },
     "properties": {
     "FIELD1":347,
     "address":"7707 Woodshire Dr",
     "price":170000,
     "city":" Dallas",
     "state":"TX",
     "zipcode":75232,
     "beds":3,
     "baths":1,
     "size":1281,
     "type":"House",
     "name":"South Oak Cliff"
     }
   },
   {
     "type": "Feature",
     "geometry": {
        "type": "Point",
        "coordinates":  [ -96.835578,32.678125 ]
     },
     "properties": {
     "FIELD1":379,
     "address":"5528 Oak Trl",
     "price":299990,
     "city":" Dallas",
     "state":"TX",
     "zipcode":75232,
     "beds":4,
     "baths":3,
     "size":2551,
     "type":"House",
     "name":"South Oak Cliff"
     }
   },
   {
     "type": "Feature",
     "geometry": {
        "type": "Point",
        "coordinates":  [ -96.833961,32.659915000000005 ]
     },
     "properties": {
     "FIELD1":401,
     "address":"749 Deerwood Dr",
     "price":185000,
     "city":" Dallas",
     "state":"TX",
     "zipcode":75232,
     "beds":3,
     "baths":1,
     "size":882,
     "type":"House",
     "name":"South Oak Cliff"
     }
   },
   {
     "type": "Feature",
     "geometry": {
        "type": "Point",
        "coordinates":  [ -96.85533199999999,32.664603 ]
     },
     "properties": {
     "FIELD1":406,
     "address":"6846 Talbot Pkwy",
     "price":375000,
     "city":" Dallas",
     "state":"TX",
     "zipcode":75232,
     "beds":4,
     "baths":3,
     "size":3552,
     "type":"House",
     "name":"South Oak Cliff"
     }
   },
   {
     "type": "Feature",
     "geometry": {
        "type": "Point",
        "coordinates":  [ -96.814588,32.698737 ]
     },
     "properties": {
     "FIELD1":427,
     "address":"3654 S Marsalis Ave",
     "price":205000,
     "city":" Dallas",
     "state":"TX",
     "zipcode":75216,
     "beds":3,
     "baths":2,
     "size":1500,
     "type":"House",
     "name":"South Oak Cliff"
     }
   },
   {
     "type": "Feature",
     "geometry": {
        "type": "Point",
        "coordinates":  [ -96.82486800000001,32.716763 ]
     },
     "properties": {
     "FIELD1":486,
     "address":"202 W Elmore Ave",
     "price":200000,
     "city":" Dallas",
     "state":"TX",
     "zipcode":75224,
     "beds":3,
     "baths":2,
     "size":1003,
     "type":"House",
     "name":"South Oak Cliff"
     }
   },
   {
     "type": "Feature",
     "geometry": {
        "type": "Point",
        "coordinates":  [ -96.837935,32.681143 ]
     },
     "properties": {
     "FIELD1":555,
     "address":"904 Green Hill Rd",
     "price":360000,
     "city":" Dallas",
     "state":"TX",
     "zipcode":75232,
     "beds":3,
     "baths":2,
     "size":2158,
     "type":"House",
     "name":"South Oak Cliff"
     }
   },
   {
     "type": "Feature",
     "geometry": {
        "type": "Point",
        "coordinates":  [ -96.831713,32.685389 ]
     },
     "properties": {
     "FIELD1":610,
     "address":"4910 Haywood Pkwy",
     "price":177777,
     "city":" Dallas",
     "state":"TX",
     "zipcode":75232,
     "beds":2,
     "baths":2,
     "size":1516,
     "type":"House",
     "name":"South Oak Cliff"
     }
   },
   {
     "type": "Feature",
     "geometry": {
        "type": "Point",
        "coordinates":  [ -96.86510200000001,33.007546000000005 ]
     },
     "properties": {
     "FIELD1":7,
     "address":"18711 Platte River Way",
     "price":339750,
     "city":" Dallas",
     "state":"TX",
     "zipcode":75287,
     "beds":4,
     "baths":2,
     "size":2307,
     "type":"House",
     "name":"Far North Dallas"
     }
   },
   {
     "type": "Feature",
     "geometry": {
        "type": "Point",
        "coordinates":  [ -96.784663,33.004721 ]
     },
     "properties": {
     "FIELD1":9,
     "address":"6816 Flanary Ln",
     "price":450000,
     "city":" Dallas",
     "state":"TX",
     "zipcode":75252,
     "beds":4,
     "baths":3,
     "size":2795,
     "type":"House",
     "name":"Far North Dallas"
     }
   },
   {
     "type": "Feature",
     "geometry": {
        "type": "Point",
        "coordinates":  [ -96.794917,33.004545 ]
     },
     "properties": {
     "FIELD1":11,
     "address":"18619 Crownover Ct",
     "price":375000,
     "city":" Dallas",
     "state":"TX",
     "zipcode":75252,
     "beds":3,
     "baths":3,
     "size":2079,
     "type":"House",
     "name":"Far North Dallas"
     }
   },
   {
     "type": "Feature",
     "geometry": {
        "type": "Point",
        "coordinates":  [ -96.803028,32.980858000000005 ]
     },
     "properties": {
     "FIELD1":30,
     "address":"6006 Gentle Knoll Ln",
     "price":429000,
     "city":" Dallas",
     "state":"TX",
     "zipcode":75248,
     "beds":4,
     "baths":3,
     "size":1969,
     "type":"House",
     "name":"Far North Dallas"
     }
   },
   {
     "type": "Feature",
     "geometry": {
        "type": "Point",
        "coordinates":  [ -96.84057800000001,33.003913 ]
     },
     "properties": {
     "FIELD1":33,
     "address":"4116 Timberglen Rd",
     "price":400000,
     "city":" Dallas",
     "state":"TX",
     "zipcode":75287,
     "beds":3,
     "baths":2,
     "size":2009,
     "type":"House",
     "name":"Far North Dallas"
     }
   },
   {
     "type": "Feature",
     "geometry": {
        "type": "Point",
        "coordinates":  [ -96.806923,32.938168 ]
     },
     "properties": {
     "FIELD1":42,
     "address":"5801 Preston Valley Dr",
     "price":349000,
     "city":" Dallas",
     "state":"TX",
     "zipcode":75240,
     "beds":2,
     "baths":2,
     "size":1374,
     "type":"House",
     "name":"Far North Dallas"
     }
   },
   {
     "type": "Feature",
     "geometry": {
        "type": "Point",
        "coordinates":  [ -96.770099,32.959546 ]
     },
     "properties": {
     "FIELD1":45,
     "address":"7935 La Cosa Dr",
     "price":450000,
     "city":" Dallas",
     "state":"TX",
     "zipcode":75248,
     "beds":5,
     "baths":4,
     "size":2345,
     "type":"House",
     "name":"Far North Dallas"
     }
   },
   {
     "type": "Feature",
     "geometry": {
        "type": "Point",
        "coordinates":  [ -96.795542,32.987994 ]
     },
     "properties": {
     "FIELD1":50,
     "address":"17317 Stedman Cir",
     "price":598000,
     "city":" Dallas",
     "state":"TX",
     "zipcode":75252,
     "beds":3,
     "baths":3,
     "size":3379,
     "type":"House",
     "name":"Far North Dallas"
     }
   },
   {
     "type": "Feature",
     "geometry": {
        "type": "Point",
        "coordinates":  [ -96.839589,33.006009999999996 ]
     },
     "properties": {
     "FIELD1":55,
     "address":"4131 Briarbend Rd",
     "price":485000,
     "city":" Dallas",
     "state":"TX",
     "zipcode":75287,
     "beds":4,
     "baths":3,
     "size":3177,
     "type":"House",
     "name":"Far North Dallas"
     }
   },
   {
     "type": "Feature",
     "geometry": {
        "type": "Point",
        "coordinates":  [ -96.79247099999999,32.949261 ]
     },
     "properties": {
     "FIELD1":69,
     "address":"6210 Meadowcreek Dr",
     "price":1249000,
     "city":" Dallas",
     "state":"TX",
     "zipcode":75254,
     "beds":5,
     "baths":5,
     "size":4764,
     "type":"House",
     "name":"Far North Dallas"
     }
   },
   {
     "type": "Feature",
     "geometry": {
        "type": "Point",
        "coordinates":  [ -96.783152,32.957899 ]
     },
     "properties": {
     "FIELD1":71,
     "address":"7239 Hillwood Ln",
     "price":725000,
     "city":" Dallas",
     "state":"TX",
     "zipcode":75248,
     "beds":4,
     "baths":3,
     "size":3015,
     "type":"House",
     "name":"Far North Dallas"
     }
   },
   {
     "type": "Feature",
     "geometry": {
        "type": "Point",
        "coordinates":  [ -96.799371,32.959625 ]
     },
     "properties": {
     "FIELD1":81,
     "address":"6209 La Cosa Dr",
     "price":485000,
     "city":" Dallas",
     "state":"TX",
     "zipcode":75248,
     "beds":4,
     "baths":3,
     "size":2587,
     "type":"House",
     "name":"Far North Dallas"
     }
   },
   {
     "type": "Feature",
     "geometry": {
        "type": "Point",
        "coordinates":  [ -96.776578,32.964379 ]
     },
     "properties": {
     "FIELD1":82,
     "address":"7646 La Bolsa Dr",
     "price":479900,
     "city":" Dallas",
     "state":"TX",
     "zipcode":75248,
     "beds":4,
     "baths":3,
     "size":2000,
     "type":"House",
     "name":"Far North Dallas"
     }
   },
   {
     "type": "Feature",
     "geometry": {
        "type": "Point",
        "coordinates":  [ -96.818188,32.965082 ]
     },
     "properties": {
     "FIELD1":92,
     "address":"5325 Bent Tree Forest Dr APT 2224",
     "price":180000,
     "city":" Dallas",
     "state":"TX",
     "zipcode":75248,
     "beds":2,
     "baths":3,
     "size":1389,
     "type":"Condo",
     "name":"Far North Dallas"
     }
   },
   {
     "type": "Feature",
     "geometry": {
        "type": "Point",
        "coordinates":  [ -96.770507,32.953996999999994 ]
     },
     "properties": {
     "FIELD1":102,
     "address":"7916 Habersham Ln",
     "price":400000,
     "city":" Dallas",
     "state":"TX",
     "zipcode":75248,
     "beds":5,
     "baths":4,
     "size":2745,
     "type":"Multi-family",
     "name":"Far North Dallas"
     }
   },
   {
     "type": "Feature",
     "geometry": {
        "type": "Point",
        "coordinates":  [ -96.821926,33.002247 ]
     },
     "properties": {
     "FIELD1":116,
     "address":"5103 Lincolnshire Ct",
     "price":999900,
     "city":" Dallas",
     "state":"TX",
     "zipcode":75287,
     "beds":5,
     "baths":5,
     "size":5007,
     "type":"House",
     "name":"Far North Dallas"
     }
   },
   {
     "type": "Feature",
     "geometry": {
        "type": "Point",
        "coordinates":  [ -96.773342,32.9559 ]
     },
     "properties": {
     "FIELD1":119,
     "address":"7812 Roundrock Rd",
     "price":690000,
     "city":" Dallas",
     "state":"TX",
     "zipcode":75248,
     "beds":5,
     "baths":4,
     "size":3221,
     "type":"House",
     "name":"Far North Dallas"
     }
   },
   {
     "type": "Feature",
     "geometry": {
        "type": "Point",
        "coordinates":  [ -96.79934399999999,32.962697999999996 ]
     },
     "properties": {
     "FIELD1":121,
     "address":"6209 Sandydale Dr",
     "price":850000,
     "city":" Dallas",
     "state":"TX",
     "zipcode":75248,
     "beds":5,
     "baths":4,
     "size":3464,
     "type":"House",
     "name":"Far North Dallas"
     }
   },
   {
     "type": "Feature",
     "geometry": {
        "type": "Point",
        "coordinates":  [ -96.802666,32.939640000000004 ]
     },
     "properties": {
     "FIELD1":136,
     "address":"14007 Highmark Sq",
     "price":589000,
     "city":" Dallas",
     "state":"TX",
     "zipcode":75254,
     "beds":3,
     "baths":3,
     "size":2759,
     "type":"House",
     "name":"Far North Dallas"
     }
   },
   {
     "type": "Feature",
     "geometry": {
        "type": "Point",
        "coordinates":  [ -96.773398,32.983961 ]
     },
     "properties": {
     "FIELD1":137,
     "address":"7724 Lone Moor Cir",
     "price":530000,
     "city":" Dallas",
     "state":"TX",
     "zipcode":75248,
     "beds":4,
     "baths":4,
     "size":2832,
     "type":"House",
     "name":"Far North Dallas"
     }
   },
   {
     "type": "Feature",
     "geometry": {
        "type": "Point",
        "coordinates":  [ -96.817154,32.976337 ]
     },
     "properties": {
     "FIELD1":141,
     "address":"5520 Bent Trl",
     "price":950000,
     "city":" Dallas",
     "state":"TX",
     "zipcode":75248,
     "beds":5,
     "baths":6,
     "size":4672,
     "type":"House",
     "name":"Far North Dallas"
     }
   },
   {
     "type": "Feature",
     "geometry": {
        "type": "Point",
        "coordinates":  [ -96.800772,32.998761 ]
     },
     "properties": {
     "FIELD1":173,
     "address":"6019 Ainsdale Ct",
     "price":315000,
     "city":" Dallas",
     "state":"TX",
     "zipcode":75252,
     "beds":2,
     "baths":2,
     "size":1632,
     "type":"House",
     "name":"Far North Dallas"
     }
   },
   {
     "type": "Feature",
     "geometry": {
        "type": "Point",
        "coordinates":  [ -96.788309,33.006764000000004 ]
     },
     "properties": {
     "FIELD1":176,
     "address":"6500 Villa Rd",
     "price":599900,
     "city":" Dallas",
     "state":"TX",
     "zipcode":75252,
     "beds":4,
     "baths":4,
     "size":3376,
     "type":"House",
     "name":"Far North Dallas"
     }
   },
   {
     "type": "Feature",
     "geometry": {
        "type": "Point",
        "coordinates":  [ -96.82459200000001,32.979539 ]
     },
     "properties": {
     "FIELD1":196,
     "address":"5007 Briar Tree Dr",
     "price":569000,
     "city":" Dallas",
     "state":"TX",
     "zipcode":75248,
     "beds":4,
     "baths":4,
     "size":3439,
     "type":"House",
     "name":"Far North Dallas"
     }
   },
   {
     "type": "Feature",
     "geometry": {
        "type": "Point",
        "coordinates":  [ -96.790711,32.98485 ]
     },
     "properties": {
     "FIELD1":221,
     "address":"6406 Norbury Dr",
     "price":600000,
     "city":" Dallas",
     "state":"TX",
     "zipcode":75248,
     "beds":4,
     "baths":3,
     "size":2865,
     "type":"House",
     "name":"Far North Dallas"
     }
   },
   {
     "type": "Feature",
     "geometry": {
        "type": "Point",
        "coordinates":  [ -96.79754100000001,32.963347999999996 ]
     },
     "properties": {
     "FIELD1":226,
     "address":"6304 Misty Trl",
     "price":860000,
     "city":" Dallas",
     "state":"TX",
     "zipcode":75248,
     "beds":4,
     "baths":5,
     "size":3523,
     "type":"House",
     "name":"Far North Dallas"
     }
   },
   {
     "type": "Feature",
     "geometry": {
        "type": "Point",
        "coordinates":  [ -96.782103,32.999083 ]
     },
     "properties": {
     "FIELD1":231,
     "address":"7018 Spruce Creek Ln",
     "price":526900,
     "city":" Dallas",
     "state":"TX",
     "zipcode":75252,
     "beds":3,
     "baths":2,
     "size":2449,
     "type":"House",
     "name":"Far North Dallas"
     }
   },
   {
     "type": "Feature",
     "geometry": {
        "type": "Point",
        "coordinates":  [ -96.77104200000001,32.943678000000006 ]
     },
     "properties": {
     "FIELD1":233,
     "address":"14318 Haymeadow Cir",
     "price":250000,
     "city":" Dallas",
     "state":"TX",
     "zipcode":75254,
     "beds":3,
     "baths":3,
     "size":1607,
     "type":"Townhouse",
     "name":"Far North Dallas"
     }
   },
   {
     "type": "Feature",
     "geometry": {
        "type": "Point",
        "coordinates":  [ -96.817689,32.994316999999995 ]
     },
     "properties": {
     "FIELD1":246,
     "address":"4728 Stonehearth Pl",
     "price":1599000,
     "city":" Dallas",
     "state":"TX",
     "zipcode":75287,
     "beds":6,
     "baths":8,
     "size":6540,
     "type":"House",
     "name":"Far North Dallas"
     }
   },
   {
     "type": "Feature",
     "geometry": {
        "type": "Point",
        "coordinates":  [ -96.805941,32.964932 ]
     },
     "properties": {
     "FIELD1":247,
     "address":"15930 Coolwood Dr",
     "price":255000,
     "city":" Dallas",
     "state":"TX",
     "zipcode":75248,
     "beds":3,
     "baths":3,
     "size":2195,
     "type":"Condo",
     "name":"Far North Dallas"
     }
   },
   {
     "type": "Feature",
     "geometry": {
        "type": "Point",
        "coordinates":  [ -96.791919,32.966328999999995 ]
     },
     "properties": {
     "FIELD1":248,
     "address":"6507 Clearhaven Cir",
     "price":529900,
     "city":" Dallas",
     "state":"TX",
     "zipcode":75248,
     "beds":4,
     "baths":3,
     "size":2590,
     "type":"House",
     "name":"Far North Dallas"
     }
   },
   {
     "type": "Feature",
     "geometry": {
        "type": "Point",
        "coordinates":  [ -96.808525,33.00877 ]
     },
     "properties": {
     "FIELD1":249,
     "address":"5806 Bent Creek Trl",
     "price":750000,
     "city":" Dallas",
     "state":"TX",
     "zipcode":75252,
     "beds":4,
     "baths":4,
     "size":4018,
     "type":"House",
     "name":"Far North Dallas"
     }
   },
   {
     "type": "Feature",
     "geometry": {
        "type": "Point",
        "coordinates":  [ -96.80631899999999,33.002132 ]
     },
     "properties": {
     "FIELD1":251,
     "address":"18701 Stoneridge Dr",
     "price":725000,
     "city":" Dallas",
     "state":"TX",
     "zipcode":75252,
     "beds":4,
     "baths":5,
     "size":4014,
     "type":"House",
     "name":"Far North Dallas"
     }
   },
   {
     "type": "Feature",
     "geometry": {
        "type": "Point",
        "coordinates":  [ -96.807573,32.965786 ]
     },
     "properties": {
     "FIELD1":255,
     "address":"5925 Copperwood Ln APT 2006",
     "price":187000,
     "city":" Dallas",
     "state":"TX",
     "zipcode":75248,
     "beds":3,
     "baths":2,
     "size":1768,
     "type":"Condo",
     "name":"Far North Dallas"
     }
   },
   {
     "type": "Feature",
     "geometry": {
        "type": "Point",
        "coordinates":  [ -96.801921,32.940290999999995 ]
     },
     "properties": {
     "FIELD1":261,
     "address":"14112 Regency Pl",
     "price":495000,
     "city":" Dallas",
     "state":"TX",
     "zipcode":75254,
     "beds":3,
     "baths":2,
     "size":2205,
     "type":"House",
     "name":"Far North Dallas"
     }
   },
   {
     "type": "Feature",
     "geometry": {
        "type": "Point",
        "coordinates":  [ -96.77166700000001,32.931159 ]
     },
     "properties": {
     "FIELD1":270,
     "address":"13442 Flagstone Ln",
     "price":284999,
     "city":" Dallas",
     "state":"TX",
     "zipcode":75240,
     "beds":4,
     "baths":2,
     "size":2017,
     "type":"House",
     "name":"Far North Dallas"
     }
   },
   {
     "type": "Feature",
     "geometry": {
        "type": "Point",
        "coordinates":  [ -96.811759,32.972882 ]
     },
     "properties": {
     "FIELD1":274,
     "address":"39 Braewood Pl",
     "price":3795000,
     "city":" Dallas",
     "state":"TX",
     "zipcode":75248,
     "beds":5,
     "baths":7,
     "size":10072,
     "type":"House",
     "name":"Far North Dallas"
     }
   },
   {
     "type": "Feature",
     "geometry": {
        "type": "Point",
        "coordinates":  [ -96.78136500000001,32.959561 ]
     },
     "properties": {
     "FIELD1":293,
     "address":"7326 La Cosa Dr",
     "price":579000,
     "city":" Dallas",
     "state":"TX",
     "zipcode":75248,
     "beds":3,
     "baths":3,
     "size":2609,
     "type":"House",
     "name":"Far North Dallas"
     }
   },
   {
     "type": "Feature",
     "geometry": {
        "type": "Point",
        "coordinates":  [ -96.80126700000001,32.998765 ]
     },
     "properties": {
     "FIELD1":301,
     "address":"6003 Ainsdale Ct",
     "price":435000,
     "city":" Dallas",
     "state":"TX",
     "zipcode":75252,
     "beds":3,
     "baths":3,
     "size":2643,
     "type":"House",
     "name":"Far North Dallas"
     }
   },
   {
     "type": "Feature",
     "geometry": {
        "type": "Point",
        "coordinates":  [ -96.8328,33.002373999999996 ]
     },
     "properties": {
     "FIELD1":303,
     "address":"4403 Landlewood Ct",
     "price":625000,
     "city":" Dallas",
     "state":"TX",
     "zipcode":75287,
     "beds":5,
     "baths":4,
     "size":3844,
     "type":"House",
     "name":"Far North Dallas"
     }
   },
   {
     "type": "Feature",
     "geometry": {
        "type": "Point",
        "coordinates":  [ -96.807523,33.005177 ]
     },
     "properties": {
     "FIELD1":306,
     "address":"5901 Deseret Trl",
     "price":600000,
     "city":" Dallas",
     "state":"TX",
     "zipcode":75252,
     "beds":4,
     "baths":3,
     "size":2840,
     "type":"House",
     "name":"Far North Dallas"
     }
   },
   {
     "type": "Feature",
     "geometry": {
        "type": "Point",
        "coordinates":  [ -96.80054399999999,33.007474 ]
     },
     "properties": {
     "FIELD1":316,
     "address":"6016 Barrington Ct",
     "price":310000,
     "city":" Dallas",
     "state":"TX",
     "zipcode":75252,
     "beds":2,
     "baths":3,
     "size":1538,
     "type":"House",
     "name":"Far North Dallas"
     }
   },
   {
     "type": "Feature",
     "geometry": {
        "type": "Point",
        "coordinates":  [ -96.846816,32.999446999999996 ]
     },
     "properties": {
     "FIELD1":329,
     "address":"3904 Stockton Ln",
     "price":338900,
     "city":" Dallas",
     "state":"TX",
     "zipcode":75287,
     "beds":3,
     "baths":2,
     "size":1648,
     "type":"House",
     "name":"Far North Dallas"
     }
   },
   {
     "type": "Feature",
     "geometry": {
        "type": "Point",
        "coordinates":  [ -96.81935899999999,32.98831 ]
     },
     "properties": {
     "FIELD1":349,
     "address":"5514 Harbor Town Dr",
     "price":1699999,
     "city":" Dallas",
     "state":"TX",
     "zipcode":75287,
     "beds":5,
     "baths":8,
     "size":7614,
     "type":"House",
     "name":"Far North Dallas"
     }
   },
   {
     "type": "Feature",
     "geometry": {
        "type": "Point",
        "coordinates":  [ -96.793386,32.953359000000006 ]
     },
     "properties": {
     "FIELD1":374,
     "address":"6732 Hillbriar Dr",
     "price":478500,
     "city":" Dallas",
     "state":"TX",
     "zipcode":75248,
     "beds":4,
     "baths":3,
     "size":2517,
     "type":"House",
     "name":"Far North Dallas"
     }
   },
   {
     "type": "Feature",
     "geometry": {
        "type": "Point",
        "coordinates":  [ -96.818703,32.968494 ]
     },
     "properties": {
     "FIELD1":404,
     "address":"5200 Keller Springs Rd APT 235",
     "price":345750,
     "city":" Dallas",
     "state":"TX",
     "zipcode":75248,
     "beds":2,
     "baths":2,
     "size":1685,
     "type":"Condo",
     "name":"Far North Dallas"
     }
   },
   {
     "type": "Feature",
     "geometry": {
        "type": "Point",
        "coordinates":  [ -96.78404300000001,32.977717999999996 ]
     },
     "properties": {
     "FIELD1":411,
     "address":"7140 Gracefield Ln",
     "price":850000,
     "city":" Dallas",
     "state":"TX",
     "zipcode":75248,
     "beds":5,
     "baths":5,
     "size":4122,
     "type":"House",
     "name":"Far North Dallas"
     }
   },
   {
     "type": "Feature",
     "geometry": {
        "type": "Point",
        "coordinates":  [ -96.85108100000001,33.001505 ]
     },
     "properties": {
     "FIELD1":417,
     "address":"3617 Granbury Dr",
     "price":348000,
     "city":" Dallas",
     "state":"TX",
     "zipcode":75287,
     "beds":3,
     "baths":2,
     "size":1609,
     "type":"House",
     "name":"Far North Dallas"
     }
   },
   {
     "type": "Feature",
     "geometry": {
        "type": "Point",
        "coordinates":  [ -96.803618,32.943655 ]
     },
     "properties": {
     "FIELD1":435,
     "address":"14333 Preston Rd APT 2603",
     "price":200000,
     "city":" Dallas",
     "state":"TX",
     "zipcode":75254,
     "beds":2,
     "baths":3,
     "size":1384,
     "type":"Condo",
     "name":"Far North Dallas"
     }
   },
   {
     "type": "Feature",
     "geometry": {
        "type": "Point",
        "coordinates":  [ -96.785375,32.946782 ]
     },
     "properties": {
     "FIELD1":444,
     "address":"6910 Midcrest Dr",
     "price":915000,
     "city":" Dallas",
     "state":"TX",
     "zipcode":75254,
     "beds":4,
     "baths":5,
     "size":3563,
     "type":"House",
     "name":"Far North Dallas"
     }
   },
   {
     "type": "Feature",
     "geometry": {
        "type": "Point",
        "coordinates":  [ -96.77596,32.962584 ]
     },
     "properties": {
     "FIELD1":485,
     "address":"7636 La Risa Dr",
     "price":409990,
     "city":" Dallas",
     "state":"TX",
     "zipcode":75248,
     "beds":3,
     "baths":2,
     "size":2104,
     "type":"House",
     "name":"Far North Dallas"
     }
   },
   {
     "type": "Feature",
     "geometry": {
        "type": "Point",
        "coordinates":  [ -96.846117,33.001853999999994 ]
     },
     "properties": {
     "FIELD1":492,
     "address":"3908 Belton Dr",
     "price":460000,
     "city":" Dallas",
     "state":"TX",
     "zipcode":75287,
     "beds":4,
     "baths":3,
     "size":3132,
     "type":"House",
     "name":"Far North Dallas"
     }
   },
   {
     "type": "Feature",
     "geometry": {
        "type": "Point",
        "coordinates":  [ -96.792568,32.974005 ]
     },
     "properties": {
     "FIELD1":517,
     "address":"6523 Redpine Rd",
     "price":534900,
     "city":" Dallas",
     "state":"TX",
     "zipcode":75248,
     "beds":4,
     "baths":3,
     "size":2842,
     "type":"House",
     "name":"Far North Dallas"
     }
   },
   {
     "type": "Feature",
     "geometry": {
        "type": "Point",
        "coordinates":  [ -96.81318900000001,32.975161 ]
     },
     "properties": {
     "FIELD1":520,
     "address":"23 Ashbluff Ln",
     "price":7500000,
     "city":" Dallas",
     "state":"TX",
     "zipcode":75248,
     "beds":7,
     "baths":9,
     "size":18589,
     "type":"House",
     "name":"Far North Dallas"
     }
   },
   {
     "type": "Feature",
     "geometry": {
        "type": "Point",
        "coordinates":  [ -96.814319,32.947127 ]
     },
     "properties": {
     "FIELD1":527,
     "address":"14757 Celestial Pl",
     "price":869000,
     "city":" Dallas",
     "state":"TX",
     "zipcode":75254,
     "beds":3,
     "baths":3,
     "size":3185,
     "type":"House",
     "name":"Far North Dallas"
     }
   },
   {
     "type": "Feature",
     "geometry": {
        "type": "Point",
        "coordinates":  [ -96.796221,32.967728 ]
     },
     "properties": {
     "FIELD1":528,
     "address":"6439 Brook Lake Dr",
     "price":895000,
     "city":" Dallas",
     "state":"TX",
     "zipcode":75248,
     "beds":4,
     "baths":4,
     "size":5321,
     "type":"House",
     "name":"Far North Dallas"
     }
   },
   {
     "type": "Feature",
     "geometry": {
        "type": "Point",
        "coordinates":  [ -96.79962900000001,33.001708 ]
     },
     "properties": {
     "FIELD1":530,
     "address":"6134 Stapleford Cir",
     "price":549900,
     "city":" Dallas",
     "state":"TX",
     "zipcode":75252,
     "beds":3,
     "baths":2,
     "size":1771,
     "type":"House",
     "name":"Far North Dallas"
     }
   },
   {
     "type": "Feature",
     "geometry": {
        "type": "Point",
        "coordinates":  [ -96.808175,32.997344 ]
     },
     "properties": {
     "FIELD1":542,
     "address":"5623 Covehaven Dr",
     "price":1099000,
     "city":" Dallas",
     "state":"TX",
     "zipcode":75252,
     "beds":5,
     "baths":4,
     "size":4578,
     "type":"House",
     "name":"Far North Dallas"
     }
   },
   {
     "type": "Feature",
     "geometry": {
        "type": "Point",
        "coordinates":  [ -96.803619,32.943505 ]
     },
     "properties": {
     "FIELD1":590,
     "address":"14277 Preston Rd APT 821",
     "price":199900,
     "city":" Dallas",
     "state":"TX",
     "zipcode":75254,
     "beds":2,
     "baths":2,
     "size":1299,
     "type":"Condo",
     "name":"Far North Dallas"
     }
   },
   {
     "type": "Feature",
     "geometry": {
        "type": "Point",
        "coordinates":  [ -96.82206500000001,32.976509 ]
     },
     "properties": {
     "FIELD1":602,
     "address":"5052 Westgrove Dr",
     "price":399900,
     "city":" Dallas",
     "state":"TX",
     "zipcode":75248,
     "beds":2,
     "baths":3,
     "size":2128,
     "type":"Townhouse",
     "name":"Far North Dallas"
     }
   },
   {
     "type": "Feature",
     "geometry": {
        "type": "Point",
        "coordinates":  [ -96.803291,32.978584999999995 ]
     },
     "properties": {
     "FIELD1":624,
     "address":"6004 Spring Flower Trl",
     "price":450000,
     "city":" Dallas",
     "state":"TX",
     "zipcode":75248,
     "beds":4,
     "baths":2,
     "size":2047,
     "type":"House",
     "name":"Far North Dallas"
     }
   },
   {
     "type": "Feature",
     "geometry": {
        "type": "Point",
        "coordinates":  [ -96.79037199999999,32.966327 ]
     },
     "properties": {
     "FIELD1":626,
     "address":"6816 Anglebluff Cir",
     "price":314900,
     "city":" Dallas",
     "state":"TX",
     "zipcode":75248,
     "beds":2,
     "baths":2,
     "size":1678,
     "type":"Townhouse",
     "name":"Far North Dallas"
     }
   },
   {
     "type": "Feature",
     "geometry": {
        "type": "Point",
        "coordinates":  [ -96.772477,32.981343 ]
     },
     "properties": {
     "FIELD1":628,
     "address":"7712 Turnberry Ln",
     "price":649999,
     "city":" Dallas",
     "state":"TX",
     "zipcode":75248,
     "beds":4,
     "baths":4,
     "size":3756,
     "type":"House",
     "name":"Far North Dallas"
     }
   },
   {
     "type": "Feature",
     "geometry": {
        "type": "Point",
        "coordinates":  [ -96.850317,32.741765 ]
     },
     "properties": {
     "FIELD1":8,
     "address":"413 S Brighton Ave",
     "price":289990,
     "city":" Dallas",
     "state":"TX",
     "zipcode":75208,
     "beds":2,
     "baths":2,
     "size":1625,
     "type":"House",
     "name":"North Oak Cliff"
     }
   },
   {
     "type": "Feature",
     "geometry": {
        "type": "Point",
        "coordinates":  [ -96.840253,32.757154 ]
     },
     "properties": {
     "FIELD1":12,
     "address":"1051 N Winnetka Ave",
     "price":995000,
     "city":" Dallas",
     "state":"TX",
     "zipcode":75208,
     "beds":3,
     "baths":3,
     "size":3360,
     "type":"House",
     "name":"North Oak Cliff"
     }
   },
   {
     "type": "Feature",
     "geometry": {
        "type": "Point",
        "coordinates":  [ -96.841893,32.768119 ]
     },
     "properties": {
     "FIELD1":27,
     "address":"1723 N Edgefield Ave",
     "price":629000,
     "city":" Dallas",
     "state":"TX",
     "zipcode":75208,
     "beds":4,
     "baths":3,
     "size":2600,
     "type":"House",
     "name":"North Oak Cliff"
     }
   },
   {
     "type": "Feature",
     "geometry": {
        "type": "Point",
        "coordinates":  [ -96.87548699999999,32.747771 ]
     },
     "properties": {
     "FIELD1":40,
     "address":"323 Lillian St",
     "price":287500,
     "city":" Dallas",
     "state":"TX",
     "zipcode":75211,
     "beds":2,
     "baths":2,
     "size":938,
     "type":"House",
     "name":"North Oak Cliff"
     }
   },
   {
     "type": "Feature",
     "geometry": {
        "type": "Point",
        "coordinates":  [ -96.855419,32.738044 ]
     },
     "properties": {
     "FIELD1":41,
     "address":"806 Hollywood Ave",
     "price":439900,
     "city":" Dallas",
     "state":"TX",
     "zipcode":75208,
     "beds":3,
     "baths":2,
     "size":1655,
     "type":"House",
     "name":"North Oak Cliff"
     }
   },
   {
     "type": "Feature",
     "geometry": {
        "type": "Point",
        "coordinates":  [ -96.863844,32.741217999999996 ]
     },
     "properties": {
     "FIELD1":56,
     "address":"2707 W 12th St",
     "price":350000,
     "city":" Dallas",
     "state":"TX",
     "zipcode":75211,
     "beds":2,
     "baths":2,
     "size":1344,
     "type":"House",
     "name":"North Oak Cliff"
     }
   },
   {
     "type": "Feature",
     "geometry": {
        "type": "Point",
        "coordinates":  [ -96.861951,32.762974 ]
     },
     "properties": {
     "FIELD1":62,
     "address":"2330 Barberry Dr",
     "price":550000,
     "city":" Dallas",
     "state":"TX",
     "zipcode":75211,
     "beds":3,
     "baths":3,
     "size":2114,
     "type":"House",
     "name":"North Oak Cliff"
     }
   },
   {
     "type": "Feature",
     "geometry": {
        "type": "Point",
        "coordinates":  [ -96.847613,32.750076 ]
     },
     "properties": {
     "FIELD1":84,
     "address":"614 N Rosemont Ave",
     "price":585000,
     "city":" Dallas",
     "state":"TX",
     "zipcode":75208,
     "beds":3,
     "baths":2,
     "size":1998,
     "type":"House",
     "name":"North Oak Cliff"
     }
   },
   {
     "type": "Feature",
     "geometry": {
        "type": "Point",
        "coordinates":  [ -96.841024,32.752399 ]
     },
     "properties": {
     "FIELD1":93,
     "address":"1116 W Canty St",
     "price":315000,
     "city":" Dallas",
     "state":"TX",
     "zipcode":75208,
     "beds":2,
     "baths":2,
     "size":1476,
     "type":"House",
     "name":"North Oak Cliff"
     }
   },
   {
     "type": "Feature",
     "geometry": {
        "type": "Point",
        "coordinates":  [ -96.851796,32.752376 ]
     },
     "properties": {
     "FIELD1":96,
     "address":"715 Kessler Woods Trl",
     "price":1390000,
     "city":" Dallas",
     "state":"TX",
     "zipcode":75208,
     "beds":3,
     "baths":4,
     "size":2776,
     "type":"House",
     "name":"North Oak Cliff"
     }
   },
   {
     "type": "Feature",
     "geometry": {
        "type": "Point",
        "coordinates":  [ -96.84407,32.74757 ]
     },
     "properties": {
     "FIELD1":98,
     "address":"307 N Edgefield Ave",
     "price":457000,
     "city":" Dallas",
     "state":"TX",
     "zipcode":75208,
     "beds":2,
     "baths":1,
     "size":1695,
     "type":"House",
     "name":"North Oak Cliff"
     }
   },
   {
     "type": "Feature",
     "geometry": {
        "type": "Point",
        "coordinates":  [ -96.85955200000001,32.744126 ]
     },
     "properties": {
     "FIELD1":103,
     "address":"2519 Sunset Ave",
     "price":399990,
     "city":" Dallas",
     "state":"TX",
     "zipcode":75211,
     "beds":2,
     "baths":2,
     "size":1460,
     "type":"House",
     "name":"North Oak Cliff"
     }
   },
   {
     "type": "Feature",
     "geometry": {
        "type": "Point",
        "coordinates":  [ -96.84298100000001,32.73918 ]
     },
     "properties": {
     "FIELD1":124,
     "address":"701 S Clinton Ave",
     "price":630000,
     "city":" Dallas",
     "state":"TX",
     "zipcode":75208,
     "beds":4,
     "baths":3,
     "size":2960,
     "type":"House",
     "name":"North Oak Cliff"
     }
   },
   {
     "type": "Feature",
     "geometry": {
        "type": "Point",
        "coordinates":  [ -96.81785500000001,32.749099 ]
     },
     "properties": {
     "FIELD1":146,
     "address":"210 Stellariga Pl",
     "price":275000,
     "city":" Dallas",
     "state":"TX",
     "zipcode":75203,
     "beds":2,
     "baths":3,
     "size":1342,
     "type":"Townhouse",
     "name":"North Oak Cliff"
     }
   },
   {
     "type": "Feature",
     "geometry": {
        "type": "Point",
        "coordinates":  [ -96.88243100000001,32.746308 ]
     },
     "properties": {
     "FIELD1":148,
     "address":"3843 Mount Everest St",
     "price":195000,
     "city":" Dallas",
     "state":"TX",
     "zipcode":75211,
     "beds":2,
     "baths":1,
     "size":809,
     "type":"House",
     "name":"North Oak Cliff"
     }
   },
   {
     "type": "Feature",
     "geometry": {
        "type": "Point",
        "coordinates":  [ -96.834461,32.746394 ]
     },
     "properties": {
     "FIELD1":163,
     "address":"729 W 9th St",
     "price":540000,
     "city":" Dallas",
     "state":"TX",
     "zipcode":75208,
     "beds":3,
     "baths":3,
     "size":2095,
     "type":"Multi-family",
     "name":"North Oak Cliff"
     }
   },
   {
     "type": "Feature",
     "geometry": {
        "type": "Point",
        "coordinates":  [ -96.832652,32.731642 ]
     },
     "properties": {
     "FIELD1":180,
     "address":"534 Monssen Dr",
     "price":499900,
     "city":" Dallas",
     "state":"TX",
     "zipcode":75224,
     "beds":3,
     "baths":2,
     "size":1800,
     "type":"House",
     "name":"North Oak Cliff"
     }
   },
   {
     "type": "Feature",
     "geometry": {
        "type": "Point",
        "coordinates":  [ -96.85303499999999,32.729246999999994 ]
     },
     "properties": {
     "FIELD1":181,
     "address":"1434 S Oak Cliff Blvd",
     "price":250000,
     "city":" Dallas",
     "state":"TX",
     "zipcode":75208,
     "beds":2,
     "baths":1,
     "size":1006,
     "type":"House",
     "name":"North Oak Cliff"
     }
   },
   {
     "type": "Feature",
     "geometry": {
        "type": "Point",
        "coordinates":  [ -96.865655,32.733839 ]
     },
     "properties": {
     "FIELD1":212,
     "address":"2746 Kingston St",
     "price":350000,
     "city":" Dallas",
     "state":"TX",
     "zipcode":75211,
     "beds":5,
     "baths":4,
     "size":2620,
     "type":"House",
     "name":"North Oak Cliff"
     }
   },
   {
     "type": "Feature",
     "geometry": {
        "type": "Point",
        "coordinates":  [ -96.86759599999999,32.744496999999996 ]
     },
     "properties": {
     "FIELD1":235,
     "address":"2862 Duval Dr",
     "price":461000,
     "city":" Dallas",
     "state":"TX",
     "zipcode":75211,
     "beds":3,
     "baths":1,
     "size":1719,
     "type":"House",
     "name":"North Oak Cliff"
     }
   },
   {
     "type": "Feature",
     "geometry": {
        "type": "Point",
        "coordinates":  [ -96.866336,32.753754 ]
     },
     "properties": {
     "FIELD1":239,
     "address":"1012 Cliffdale Ave",
     "price":249000,
     "city":" Dallas",
     "state":"TX",
     "zipcode":75211,
     "beds":3,
     "baths":1,
     "size":1348,
     "type":"House",
     "name":"North Oak Cliff"
     }
   },
   {
     "type": "Feature",
     "geometry": {
        "type": "Point",
        "coordinates":  [ -96.846654,32.741285 ]
     },
     "properties": {
     "FIELD1":245,
     "address":"408 S Montclair Ave",
     "price":439900,
     "city":" Dallas",
     "state":"TX",
     "zipcode":75208,
     "beds":2,
     "baths":2,
     "size":1728,
     "type":"Multi-family",
     "name":"North Oak Cliff"
     }
   },
   {
     "type": "Feature",
     "geometry": {
        "type": "Point",
        "coordinates":  [ -96.846923,32.7223 ]
     },
     "properties": {
     "FIELD1":264,
     "address":"1614 Wilbur St",
     "price":249900,
     "city":" Dallas",
     "state":"TX",
     "zipcode":75224,
     "beds":2,
     "baths":2,
     "size":1040,
     "type":"House",
     "name":"North Oak Cliff"
     }
   },
   {
     "type": "Feature",
     "geometry": {
        "type": "Point",
        "coordinates":  [ -96.84526899999999,32.752001 ]
     },
     "properties": {
     "FIELD1":269,
     "address":"730 N Windomere Ave",
     "price":550000,
     "city":" Dallas",
     "state":"TX",
     "zipcode":75208,
     "beds":3,
     "baths":3,
     "size":2744,
     "type":"Multi-family",
     "name":"North Oak Cliff"
     }
   },
   {
     "type": "Feature",
     "geometry": {
        "type": "Point",
        "coordinates":  [ -96.81415,32.753510999999996 ]
     },
     "properties": {
     "FIELD1":275,
     "address":"417 N Lancaster Ave",
     "price":199000,
     "city":" Dallas",
     "state":"TX",
     "zipcode":75203,
     "beds":3,
     "baths":3,
     "size":1493,
     "type":"House",
     "name":"North Oak Cliff"
     }
   },
   {
     "type": "Feature",
     "geometry": {
        "type": "Point",
        "coordinates":  [ -96.858465,32.739196 ]
     },
     "properties": {
     "FIELD1":287,
     "address":"2439 W Brooklyn Ave",
     "price":378000,
     "city":" Dallas",
     "state":"TX",
     "zipcode":75211,
     "beds":2,
     "baths":2,
     "size":1862,
     "type":"Multi-family",
     "name":"North Oak Cliff"
     }
   },
   {
     "type": "Feature",
     "geometry": {
        "type": "Point",
        "coordinates":  [ -96.830046,32.756935999999996 ]
     },
     "properties": {
     "FIELD1":314,
     "address":"1120 Woodlawn Ave",
     "price":600000,
     "city":" Dallas",
     "state":"TX",
     "zipcode":75208,
     "beds":4,
     "baths":5,
     "size":2735,
     "type":"House",
     "name":"North Oak Cliff"
     }
   },
   {
     "type": "Feature",
     "geometry": {
        "type": "Point",
        "coordinates":  [ -96.87996700000001,32.729240999999995 ]
     },
     "properties": {
     "FIELD1":320,
     "address":"3615 Glenhaven Blvd",
     "price":265000,
     "city":" Dallas",
     "state":"TX",
     "zipcode":75211,
     "beds":4,
     "baths":2,
     "size":1417,
     "type":"House",
     "name":"North Oak Cliff"
     }
   },
   {
     "type": "Feature",
     "geometry": {
        "type": "Point",
        "coordinates":  [ -96.843947,32.757020000000004 ]
     },
     "properties": {
     "FIELD1":335,
     "address":"1046 N Windomere Ave",
     "price":737000,
     "city":" Dallas",
     "state":"TX",
     "zipcode":75208,
     "beds":4,
     "baths":3,
     "size":2896,
     "type":"House",
     "name":"North Oak Cliff"
     }
   },
   {
     "type": "Feature",
     "geometry": {
        "type": "Point",
        "coordinates":  [ -96.87471500000001,32.736815 ]
     },
     "properties": {
     "FIELD1":354,
     "address":"3314 Burlingdell Ave",
     "price":349000,
     "city":" Dallas",
     "state":"TX",
     "zipcode":75211,
     "beds":3,
     "baths":2,
     "size":2069,
     "type":"House",
     "name":"North Oak Cliff"
     }
   },
   {
     "type": "Feature",
     "geometry": {
        "type": "Point",
        "coordinates":  [ -96.877843,32.726380999999996 ]
     },
     "properties": {
     "FIELD1":369,
     "address":"3423 Falls Dr",
     "price":265000,
     "city":" Dallas",
     "state":"TX",
     "zipcode":75211,
     "beds":3,
     "baths":2,
     "size":1318,
     "type":"House",
     "name":"North Oak Cliff"
     }
   },
   {
     "type": "Feature",
     "geometry": {
        "type": "Point",
        "coordinates":  [ -96.833345,32.76648 ]
     },
     "properties": {
     "FIELD1":372,
     "address":"1322 Kessler Pkwy",
     "price":2000000,
     "city":" Dallas",
     "state":"TX",
     "zipcode":75208,
     "beds":3,
     "baths":3,
     "size":3043,
     "type":"House",
     "name":"North Oak Cliff"
     }
   },
   {
     "type": "Feature",
     "geometry": {
        "type": "Point",
        "coordinates":  [ -96.84263100000001,32.725208 ]
     },
     "properties": {
     "FIELD1":376,
     "address":"1214 Newport Ave",
     "price":250000,
     "city":" Dallas",
     "state":"TX",
     "zipcode":75224,
     "beds":4,
     "baths":4,
     "size":1228,
     "type":"House",
     "name":"North Oak Cliff"
     }
   },
   {
     "type": "Feature",
     "geometry": {
        "type": "Point",
        "coordinates":  [ -96.844138,32.744009999999996 ]
     },
     "properties": {
     "FIELD1":382,
     "address":"202 S Edgefield Ave",
     "price":514900,
     "city":" Dallas",
     "state":"TX",
     "zipcode":75208,
     "beds":4,
     "baths":3,
     "size":2384,
     "type":"House",
     "name":"North Oak Cliff"
     }
   },
   {
     "type": "Feature",
     "geometry": {
        "type": "Point",
        "coordinates":  [ -96.88715,32.722328999999995 ]
     },
     "properties": {
     "FIELD1":423,
     "address":"4110 June Dr",
     "price":210000,
     "city":" Dallas",
     "state":"TX",
     "zipcode":75211,
     "beds":3,
     "baths":2,
     "size":1282,
     "type":"House",
     "name":"North Oak Cliff"
     }
   },
   {
     "type": "Feature",
     "geometry": {
        "type": "Point",
        "coordinates":  [ -96.859549,32.747858 ]
     },
     "properties": {
     "FIELD1":432,
     "address":"2518 W Jefferson Blvd",
     "price":399000,
     "city":" Dallas",
     "state":"TX",
     "zipcode":75211,
     "beds":3,
     "baths":2,
     "size":1271,
     "type":"House",
     "name":"North Oak Cliff"
     }
   },
   {
     "type": "Feature",
     "geometry": {
        "type": "Point",
        "coordinates":  [ -96.825339,32.755093 ]
     },
     "properties": {
     "FIELD1":455,
     "address":"1010 Elsbeth St",
     "price":619000,
     "city":" Dallas",
     "state":"TX",
     "zipcode":75208,
     "beds":4,
     "baths":4,
     "size":3098,
     "type":"House",
     "name":"North Oak Cliff"
     }
   },
   {
     "type": "Feature",
     "geometry": {
        "type": "Point",
        "coordinates":  [ -96.836831,32.720821 ]
     },
     "properties": {
     "FIELD1":490,
     "address":"2523 S Vernon Ave",
     "price":195000,
     "city":" Dallas",
     "state":"TX",
     "zipcode":75224,
     "beds":4,
     "baths":2,
     "size":1980,
     "type":"House",
     "name":"North Oak Cliff"
     }
   },
   {
     "type": "Feature",
     "geometry": {
        "type": "Point",
        "coordinates":  [ -96.854826,32.762202 ]
     },
     "properties": {
     "FIELD1":494,
     "address":"2018 Atlantic St",
     "price":549900,
     "city":" Dallas",
     "state":"TX",
     "zipcode":75208,
     "beds":4,
     "baths":3,
     "size":2345,
     "type":"House",
     "name":"North Oak Cliff"
     }
   },
   {
     "type": "Feature",
     "geometry": {
        "type": "Point",
        "coordinates":  [ -96.846577,32.723264 ]
     },
     "properties": {
     "FIELD1":512,
     "address":"1606 Melbourne Ave",
     "price":279000,
     "city":" Dallas",
     "state":"TX",
     "zipcode":75224,
     "beds":3,
     "baths":2,
     "size":1306,
     "type":"House",
     "name":"North Oak Cliff"
     }
   },
   {
     "type": "Feature",
     "geometry": {
        "type": "Point",
        "coordinates":  [ -96.840456,32.741768 ]
     },
     "properties": {
     "FIELD1":521,
     "address":"418 S Willomet Ave",
     "price":475000,
     "city":" Dallas",
     "state":"TX",
     "zipcode":75208,
     "beds":3,
     "baths":2,
     "size":1552,
     "type":"House",
     "name":"North Oak Cliff"
     }
   },
   {
     "type": "Feature",
     "geometry": {
        "type": "Point",
        "coordinates":  [ -96.817911,32.75054 ]
     },
     "properties": {
     "FIELD1":523,
     "address":"430 E 8th St",
     "price":300000,
     "city":" Dallas",
     "state":"TX",
     "zipcode":75203,
     "beds":2,
     "baths":2,
     "size":1922,
     "type":"House",
     "name":"North Oak Cliff"
     }
   },
   {
     "type": "Feature",
     "geometry": {
        "type": "Point",
        "coordinates":  [ -96.816661,32.752632 ]
     },
     "properties": {
     "FIELD1":550,
     "address":"418 Lansing St",
     "price":329000,
     "city":" Dallas",
     "state":"TX",
     "zipcode":75203,
     "beds":3,
     "baths":2,
     "size":1131,
     "type":"House",
     "name":"North Oak Cliff"
     }
   },
   {
     "type": "Feature",
     "geometry": {
        "type": "Point",
        "coordinates":  [ -96.838091,32.765122 ]
     },
     "properties": {
     "FIELD1":577,
     "address":"1645 Nob Hill Rd",
     "price":775000,
     "city":" Dallas",
     "state":"TX",
     "zipcode":75208,
     "beds":2,
     "baths":3,
     "size":2996,
     "type":"House",
     "name":"North Oak Cliff"
     }
   },
   {
     "type": "Feature",
     "geometry": {
        "type": "Point",
        "coordinates":  [ -96.869004,32.734343 ]
     },
     "properties": {
     "FIELD1":580,
     "address":"2903 W Clarendon Dr",
     "price":185000,
     "city":" Dallas",
     "state":"TX",
     "zipcode":75211,
     "beds":3,
     "baths":1,
     "size":800,
     "type":"House",
     "name":"North Oak Cliff"
     }
   },
   {
     "type": "Feature",
     "geometry": {
        "type": "Point",
        "coordinates":  [ -96.862003,32.746787 ]
     },
     "properties": {
     "FIELD1":587,
     "address":"2638 Alco Ave",
     "price":375000,
     "city":" Dallas",
     "state":"TX",
     "zipcode":75211,
     "beds":3,
     "baths":2,
     "size":1647,
     "type":"House",
     "name":"North Oak Cliff"
     }
   },
   {
     "type": "Feature",
     "geometry": {
        "type": "Point",
        "coordinates":  [ -96.85033100000001,32.740891999999995 ]
     },
     "properties": {
     "FIELD1":597,
     "address":"508 S Brighton Ave",
     "price":276000,
     "city":" Dallas",
     "state":"TX",
     "zipcode":75208,
     "beds":4,
     "baths":4,
     "size":2192,
     "type":"House",
     "name":"North Oak Cliff"
     }
   },
   {
     "type": "Feature",
     "geometry": {
        "type": "Point",
        "coordinates":  [ -96.83559699999999,32.764023 ]
     },
     "properties": {
     "FIELD1":600,
     "address":"773 Evergreen Hills Rd",
     "price":2200000,
     "city":" Dallas",
     "state":"TX",
     "zipcode":75208,
     "beds":6,
     "baths":7,
     "size":5891,
     "type":"House",
     "name":"North Oak Cliff"
     }
   },
   {
     "type": "Feature",
     "geometry": {
        "type": "Point",
        "coordinates":  [ -96.836973,32.763839000000004 ]
     },
     "properties": {
     "FIELD1":601,
     "address":"828 Evergreen Hills Rd",
     "price":667000,
     "city":" Dallas",
     "state":"TX",
     "zipcode":75208,
     "beds":2,
     "baths":3,
     "size":2261,
     "type":"House",
     "name":"North Oak Cliff"
     }
   },
   {
     "type": "Feature",
     "geometry": {
        "type": "Point",
        "coordinates":  [ -96.84558,32.733752 ]
     },
     "properties": {
     "FIELD1":638,
     "address":"1430 Nolte Dr",
     "price":341500,
     "city":" Dallas",
     "state":"TX",
     "zipcode":75208,
     "beds":3,
     "baths":2,
     "size":1375,
     "type":"House",
     "name":"North Oak Cliff"
     }
   },
   {
     "type": "Feature",
     "geometry": {
        "type": "Point",
        "coordinates":  [ -96.873582,32.875809000000004 ]
     },
     "properties": {
     "FIELD1":10,
     "address":"3121 Park Ln APT 1153",
     "price":114000,
     "city":" Dallas",
     "state":"TX",
     "zipcode":75220,
     "beds":2,
     "baths":2,
     "size":970,
     "type":"Condo",
     "name":"Northwest Dallas"
     }
   },
   {
     "type": "Feature",
     "geometry": {
        "type": "Point",
        "coordinates":  [ -96.869703,32.897881 ]
     },
     "properties": {
     "FIELD1":14,
     "address":"3220 Dothan Ln",
     "price":355000,
     "city":" Dallas",
     "state":"TX",
     "zipcode":75229,
     "beds":3,
     "baths":3,
     "size":1873,
     "type":"House",
     "name":"Northwest Dallas"
     }
   },
   {
     "type": "Feature",
     "geometry": {
        "type": "Point",
        "coordinates":  [ -96.863755,32.881356 ]
     },
     "properties": {
     "FIELD1":34,
     "address":"3456 Salisbury Dr",
     "price":490000,
     "city":" Dallas",
     "state":"TX",
     "zipcode":75229,
     "beds":4,
     "baths":3,
     "size":2507,
     "type":"House",
     "name":"Northwest Dallas"
     }
   },
   {
     "type": "Feature",
     "geometry": {
        "type": "Point",
        "coordinates":  [ -96.850636,32.908949 ]
     },
     "properties": {
     "FIELD1":58,
     "address":"3821 Goodfellow Dr",
     "price":515000,
     "city":" Dallas",
     "state":"TX",
     "zipcode":75229,
     "beds":3,
     "baths":2,
     "size":2122,
     "type":"House",
     "name":"Northwest Dallas"
     }
   },